{
    "7336": {
        "stop_name": "Queens Drive at Sutherland Road",
        "stop_lat": -41.3326276,
        "stop_lon": 174.7908898,
        "location_type": 0
    },
    "9008": {
        "stop_name": "Cuba Street at Weltec",
        "stop_lat": -41.22445726,
        "stop_lon": 174.8863581,
        "location_type": 0
    },
    "7037": {
        "stop_name": "Broadway at Bentinck Avenue",
        "stop_lat": -41.32410641,
        "stop_lon": 174.8230364,
        "location_type": 0
    },
    "6032": {
        "stop_name": "Hobart Street opposite Kedah Street",
        "stop_lat": -41.32355031,
        "stop_lon": 174.812626,
        "location_type": 0
    },
    "4137": {
        "stop_name": "Churchill Drive near Bowen Hospital",
        "stop_lat": -41.25964153999999,
        "stop_lon": 174.7662305,
        "location_type": 0
    },
    "6954": {
        "stop_name": "Buckley Road (near 207)",
        "stop_lat": -41.34198154,
        "stop_lon": 174.7801507,
        "location_type": 0
    },
    "1942": {
        "stop_name": "High Street Masterton (near 125)",
        "stop_lat": -40.96145668,
        "stop_lon": 175.6340767,
        "location_type": 0
    },
    "6927": {
        "stop_name": "Hornsey Road opposite Auckland Terrace",
        "stop_lat": -41.32592897,
        "stop_lon": 174.78724119999998,
        "location_type": 0
    },
    "6282": {
        "stop_name": "Wilberforce St at Townsend Rd (play area)",
        "stop_lat": -41.32084966,
        "stop_lon": 174.82385786,
        "location_type": 0
    },
    "1192": {
        "stop_name": "Arawhata Road at Greenwood Place",
        "stop_lat": -40.90966691,
        "stop_lon": 175.0026426,
        "location_type": 0
    },
    "2726": {
        "stop_name": "Discovery Drive (near 109)",
        "stop_lat": -41.11606233,
        "stop_lon": 174.8995678,
        "location_type": 0
    },
    "9213": {
        "stop_name": "Major Drive at Taieri Crescent (near 81)",
        "stop_lat": -41.18310521,
        "stop_lon": 174.9303571,
        "location_type": 0
    },
    "5331": {
        "stop_name": "Karori Road opposite Karori Park",
        "stop_lat": -41.28718563999999,
        "stop_lon": 174.7251662,
        "location_type": 0
    },
    "9411": {
        "stop_name": "Sunbrae Drive at Ecclesfield Grove",
        "stop_lat": -41.15405362,
        "stop_lon": 175.0120906,
        "location_type": 0
    },
    "3030": {
        "stop_name": "Cortina Avenue (near 20)",
        "stop_lat": -41.22236186,
        "stop_lon": 174.79777909999999,
        "location_type": 0
    },
    "6222": {
        "stop_name": "Wellington Regional Aquatic Centre",
        "stop_lat": -41.31511839,
        "stop_lon": 174.7931581,
        "location_type": 0
    },
    "7914": {
        "stop_name": "Massey University - Wallace Street (opposite)",
        "stop_lat": -41.30190388,
        "stop_lon": 174.7740434,
        "location_type": 0
    },
    "8260": {
        "stop_name": "Naenae Road at Vogel Street (near 154)",
        "stop_lat": -41.20226008,
        "stop_lon": 174.9482127,
        "location_type": 0
    },
    "8096": {
        "stop_name": "Korokoro - Singers Road",
        "stop_lat": -41.22049129,
        "stop_lon": 174.86441330000002,
        "location_type": 0
    },
    "9376": {
        "stop_name": "Stokes Valley Road (near 479)",
        "stop_lat": -41.19049445,
        "stop_lon": 174.9831584,
        "location_type": 0
    },
    "7051": {
        "stop_name": "Breaker Bay Road at Palmer Bay",
        "stop_lat": -41.34112993,
        "stop_lon": 174.8230332,
        "location_type": 0
    },
    "9279": {
        "stop_name": "Hay Street at Boyd Grove (near 29)",
        "stop_lat": -41.20316104,
        "stop_lon": 174.9641013,
        "location_type": 0
    },
    "1522": {
        "stop_name": "Te Moana Road at Leybourne Avenue (near 382)",
        "stop_lat": -40.87856261,
        "stop_lon": 175.0503614,
        "location_type": 0
    },
    "1162": {
        "stop_name": "Te Kupe Road at Watson Drive",
        "stop_lat": -40.88029154,
        "stop_lon": 174.99285559999998,
        "location_type": 0
    },
    "6094": {
        "stop_name": "Taiaroa Street at Tukanae Street (near 27)",
        "stop_lat": -41.33419252,
        "stop_lon": 174.8174621,
        "location_type": 0
    },
    "8018": {
        "stop_name": "Jackson Street at Patrick Street",
        "stop_lat": -41.22856148,
        "stop_lon": 174.888743,
        "location_type": 0
    },
    "4362": {
        "stop_name": "Parklands Drive (near 18)",
        "stop_lat": -41.29065352,
        "stop_lon": 174.7260888,
        "location_type": 0
    },
    "6771": {
        "stop_name": "Mitchell Street at Phoenix Way",
        "stop_lat": -41.31061270000001,
        "stop_lon": 174.758272,
        "location_type": 0
    },
    "1316": {
        "stop_name": "Alexander Road at Ngaio Road",
        "stop_lat": -40.91271242,
        "stop_lon": 174.9827867,
        "location_type": 0
    },
    "5944": {
        "stop_name": "Moana Road opposite Disley Street",
        "stop_lat": -41.29055673,
        "stop_lon": 174.7563002,
        "location_type": 0
    },
    "3014": {
        "stop_name": "Ohariu Road (near 67)",
        "stop_lat": -41.21715345,
        "stop_lon": 174.8025273,
        "location_type": 0
    },
    "9286": {
        "stop_name": "Hewer Crescent (near 67)",
        "stop_lat": -41.1960251,
        "stop_lon": 174.95470569999998,
        "location_type": 0
    },
    "8700": {
        "stop_name": "Gracefield Road at Hutt Park Road",
        "stop_lat": -41.241359499999994,
        "stop_lon": 174.91579468,
        "location_type": 0
    },
    "6080": {
        "stop_name": "Miramar Avenue at Tauhinu Road",
        "stop_lat": -41.31498596,
        "stop_lon": 174.8131054,
        "location_type": 0
    },
    "1258": {
        "stop_name": "Martin Road at Michael Road (near 39)",
        "stop_lat": -40.88684934,
        "stop_lon": 174.99388330000002,
        "location_type": 0
    },
    "7782": {
        "stop_name": "Aro Street at Willis Street",
        "stop_lat": -41.29601676,
        "stop_lon": 174.7703009,
        "location_type": 0
    },
    "1530": {
        "stop_name": "Te Moana Road at Greenaway Road",
        "stop_lat": -40.87267414,
        "stop_lon": 175.03700790000002,
        "location_type": 0
    },
    "3700": {
        "stop_name": "Horokiwi Road at Pinkerton Grove",
        "stop_lat": -41.22270841,
        "stop_lon": 174.82725530000002,
        "location_type": 0
    },
    "1232": {
        "stop_name": "Gray Avenue at Martin Road (near 83)",
        "stop_lat": -40.88995314999999,
        "stop_lon": 174.9967065,
        "location_type": 0
    },
    "3764": {
        "stop_name": "Somes Crescent at Sunhaven Drive (near 44)",
        "stop_lat": -41.22614008,
        "stop_lon": 174.83236169999998,
        "location_type": 0
    },
    "7296": {
        "stop_name": "Beacon Hill - Sidlaw Street",
        "stop_lat": -41.33157525,
        "stop_lon": 174.82348369999997,
        "location_type": 0
    },
    "3038": {
        "stop_name": "McLintock Street at Meadowcroft Grove",
        "stop_lat": -41.22530621,
        "stop_lon": 174.7938035,
        "location_type": 0
    },
    "7287": {
        "stop_name": "Beacon Hill Road (near 14)",
        "stop_lat": -41.32383535,
        "stop_lon": 174.82804363,
        "location_type": 0
    },
    "2168": {
        "stop_name": "Windley School - Mungavin Avenue",
        "stop_lat": -41.14039569,
        "stop_lon": 174.860117,
        "location_type": 0
    },
    "6163": {
        "stop_name": "Houghton Bay - The Esplanade (near 86)",
        "stop_lat": -41.341733000000005,
        "stop_lon": 174.78456599999998,
        "location_type": 0
    },
    "1266": {
        "stop_name": "Gray Avenue at Eatwell Avenue",
        "stop_lat": -40.89419709,
        "stop_lon": 174.99089890000002,
        "location_type": 0
    },
    "8862": {
        "stop_name": "Muritai Road near Makaro Street",
        "stop_lat": -41.29213399999999,
        "stop_lon": 174.897291,
        "location_type": 0
    },
    "9166": {
        "stop_name": "Waterloo Road (near 259)",
        "stop_lat": -41.21244422,
        "stop_lon": 174.92644840000003,
        "location_type": 0
    },
    "4315": {
        "stop_name": "Glenmore Street at Orangi Kaupapa Road",
        "stop_lat": -41.28344091,
        "stop_lon": 174.7621992,
        "location_type": 0
    },
    "3239": {
        "stop_name": "Abilene Crescent opposite Furlong Crescent",
        "stop_lat": -41.20962136,
        "stop_lon": 174.80309166,
        "location_type": 0
    },
    "1100": {
        "stop_name": "Rimu Road at Civic Centre",
        "stop_lat": -40.91540812,
        "stop_lon": 175.0040033,
        "location_type": 0
    },
    "1915": {
        "stop_name": "State Highway 2 at Boundary Road (southbound)",
        "stop_lat": -41.1198024,
        "stop_lon": 175.3376382,
        "location_type": 0
    },
    "9572": {
        "stop_name": "Fergusson Rest Home (near 657)",
        "stop_lat": -41.12696656,
        "stop_lon": 175.0515261,
        "location_type": 0
    },
    "4913": {
        "stop_name": "The Terrace at Dalmuir Lane (near 130)",
        "stop_lat": -41.28351574,
        "stop_lon": 174.77447469999998,
        "location_type": 0
    },
    "7133": {
        "stop_name": "The Parade (near 206)",
        "stop_lat": -41.33684747,
        "stop_lon": 174.77276674,
        "location_type": 0
    },
    "6951": {
        "stop_name": "Buckley Road (near 109)",
        "stop_lat": -41.33690719,
        "stop_lon": 174.78293303,
        "location_type": 0
    },
    "1330": {
        "stop_name": "Teoti Street (near 14)",
        "stop_lat": -40.90065863,
        "stop_lon": 174.981833,
        "location_type": 0
    },
    "7911": {
        "stop_name": "Taranaki Street at Vivian Street",
        "stop_lat": -41.29518976,
        "stop_lon": 174.77720549999998,
        "location_type": 0
    },
    "7268": {
        "stop_name": "Nevay Road (opposite 50)",
        "stop_lat": -41.30870629999999,
        "stop_lon": 174.82858000000002,
        "location_type": 0
    },
    "2024": {
        "stop_name": "Parumoana Street (near 16)",
        "stop_lat": -41.13152418,
        "stop_lon": 174.8404477,
        "location_type": 0
    },
    "6214": {
        "stop_name": "Pirie Street at Porritt Avenue (near 77)",
        "stop_lat": -41.29829421,
        "stop_lon": 174.78612809999998,
        "location_type": 0
    },
    "6265": {
        "stop_name": "Nevay Road at Glenville Road",
        "stop_lat": -41.30180193999999,
        "stop_lon": 174.8292892,
        "location_type": 0
    },
    "9358": {
        "stop_name": "Hill Road (near 133)",
        "stop_lat": -41.18467269,
        "stop_lon": 174.91740719999999,
        "location_type": 0
    },
    "5393": {
        "stop_name": "Beauchamp Street (near 76)",
        "stop_lat": -41.29027034,
        "stop_lon": 174.7395734,
        "location_type": 0
    },
    "1922": {
        "stop_name": "Greytown - Main Street (near 73)",
        "stop_lat": -41.07929591,
        "stop_lon": 175.4617807,
        "location_type": 0
    },
    "9848": {
        "stop_name": "Muritai Road at Houhere Terrace (near 107)",
        "stop_lat": -41.28880792999999,
        "stop_lon": 174.9003917,
        "location_type": 0
    },
    "7720": {
        "stop_name": "Brooklyn - Stop B",
        "stop_lat": -41.30514192326842,
        "stop_lon": 174.7653414286889,
        "location_type": 0
    },
    "4396": {
        "stop_name": "Karori Mall - Beauchamp Street (Recreation Centre)",
        "stop_lat": -41.28530028,
        "stop_lon": 174.73724338,
        "location_type": 0
    },
    "6267": {
        "stop_name": "Nevay Road (near 94)",
        "stop_lat": -41.30644223,
        "stop_lon": 174.8293529,
        "location_type": 0
    },
    "8315": {
        "stop_name": "Logie Street (near 39)",
        "stop_lat": -41.17436569,
        "stop_lon": 174.9782609,
        "location_type": 0
    },
    "8201": {
        "stop_name": "Oxford Terrace at Epuni Station",
        "stop_lat": -41.20798294,
        "stop_lon": 174.9292993,
        "location_type": 0
    },
    "6218": {
        "stop_name": "Moxham Avenue at Raupo Street (near 87)",
        "stop_lat": -41.30749464,
        "stop_lon": 174.7930105,
        "location_type": 0
    },
    "8579": {
        "stop_name": "Upper Hutt Station - Stop A",
        "stop_lat": -41.12597969,
        "stop_lon": 175.07058065,
        "location_type": 0
    },
    "9069": {
        "stop_name": "Pokohiwi Road (near 29)",
        "stop_lat": -41.20334136,
        "stop_lon": 174.888733,
        "location_type": 0
    },
    "4459": {
        "stop_name": "Khandallah - Box Hill at Station Road East",
        "stop_lat": -41.24228705,
        "stop_lon": 174.79241281,
        "location_type": 0
    },
    "1250": {
        "stop_name": "Golf Road at George Street (near 29)",
        "stop_lat": -40.88972419,
        "stop_lon": 174.9838805,
        "location_type": 0
    },
    "8982": {
        "stop_name": "Nelson Crescent at Wise Street (near 17)",
        "stop_lat": -41.25490339,
        "stop_lon": 174.9510895,
        "location_type": 0
    },
    "7950": {
        "stop_name": "Buckley Road (near 78)",
        "stop_lat": -41.33507239,
        "stop_lon": 174.7842646,
        "location_type": 0
    },
    "9351": {
        "stop_name": "Park Road (near 131)",
        "stop_lat": -41.18801169999999,
        "stop_lon": 174.91702769999998,
        "location_type": 0
    },
    "2914": {
        "stop_name": "Tireti Road (near 45)",
        "stop_lat": -41.10901488999999,
        "stop_lon": 174.83422140000002,
        "location_type": 0
    },
    "9250": {
        "stop_name": "High Street at Macky Street",
        "stop_lat": -41.18363269999999,
        "stop_lon": 174.9577946,
        "location_type": 0
    },
    "4418": {
        "stop_name": "Clutha Avenue at Nicholson Road (near 3)",
        "stop_lat": -41.24807289,
        "stop_lon": 174.78941369999998,
        "location_type": 0
    },
    "5324": {
        "stop_name": "Karori Road at Lancaster Street",
        "stop_lat": -41.28224548,
        "stop_lon": 174.7463543,
        "location_type": 0
    },
    "1560": {
        "stop_name": "Waikanae Beach - Rauparaha Street",
        "stop_lat": -40.8658842,
        "stop_lon": 175.0287313,
        "location_type": 0
    },
    "4407": {
        "stop_name": "Perth Street at Orari Street Walkway (near 15)",
        "stop_lat": -41.25462091,
        "stop_lon": 174.773718,
        "location_type": 0
    },
    "3260": {
        "stop_name": "Hutt Road at Rangiora Avenue",
        "stop_lat": -41.25552425,
        "stop_lon": 174.79677859999998,
        "location_type": 0
    },
    "7070": {
        "stop_name": "Karaka Bay Road opposite Pretoria Road",
        "stop_lat": -41.3000063,
        "stop_lon": 174.8319201,
        "location_type": 0
    },
    "3408": {
        "stop_name": "Stewart Drive opposite Batchelor Street",
        "stop_lat": -41.22215757,
        "stop_lon": 174.8222295,
        "location_type": 0
    },
    "9517": {
        "stop_name": "Kirton Drive opposite Grace Nicholls Grove",
        "stop_lat": -41.10900406999999,
        "stop_lon": 175.03810963,
        "location_type": 0
    },
    "1971": {
        "stop_name": "South Road at Short Street",
        "stop_lat": -40.96056839,
        "stop_lon": 175.64532880000002,
        "location_type": 0
    },
    "9350": {
        "stop_name": "Park Road at Chilean Embassy (near 71)",
        "stop_lat": -41.18824009,
        "stop_lon": 174.91953830000003,
        "location_type": 0
    },
    "4454": {
        "stop_name": "Bombay Street opposite Tarikaka Street",
        "stop_lat": -41.24955108,
        "stop_lon": 174.7812191,
        "location_type": 0
    },
    "9463": {
        "stop_name": "Fergusson Drive at Perry Street",
        "stop_lat": -41.14507039,
        "stop_lon": 175.01586719999997,
        "location_type": 0
    },
    "8233": {
        "stop_name": "Taita Drive at Percy Cameron Street (near 238)",
        "stop_lat": -41.18692722,
        "stop_lon": 174.9494273,
        "location_type": 0
    },
    "9703": {
        "stop_name": "Parkside Road at Hutt Park Road",
        "stop_lat": -41.23672139,
        "stop_lon": 174.9073537,
        "location_type": 0
    },
    "1952": {
        "stop_name": "Cole Street at Kummer Crescent",
        "stop_lat": -40.94543969,
        "stop_lon": 175.6451997,
        "location_type": 0
    },
    "5453": {
        "stop_name": "Colway Street at Bombay Street",
        "stop_lat": -41.24993520999999,
        "stop_lon": 174.779678,
        "location_type": 0
    },
    "9731": {
        "stop_name": "Seaview - Seaview Road (near 43)",
        "stop_lat": -41.238795,
        "stop_lon": 174.907669,
        "location_type": 0
    },
    "1940": {
        "stop_name": "High Street Masterton (near 199)",
        "stop_lat": -40.96216734,
        "stop_lon": 175.6266194,
        "location_type": 0
    },
    "7224": {
        "stop_name": "Kilbirnie - Stop B",
        "stop_lat": -41.31760422456684,
        "stop_lon": 174.79593749451027,
        "location_type": 0
    },
    "6052": {
        "stop_name": "Moa Point Road (near 39)",
        "stop_lat": -41.33727468,
        "stop_lon": 174.8104969,
        "location_type": 0
    },
    "8312": {
        "stop_name": "Logie Street at Shaftsbury Grove",
        "stop_lat": -41.17155848,
        "stop_lon": 174.9738851,
        "location_type": 0
    },
    "3948": {
        "stop_name": "Kenepuru Drive opposite Rembrandt Avenue",
        "stop_lat": -41.15011217,
        "stop_lon": 174.83274509999998,
        "location_type": 0
    },
    "7424": {
        "stop_name": "Berhampore Shops - Adelaide Road",
        "stop_lat": -41.31962956999999,
        "stop_lon": 174.775241,
        "location_type": 0
    },
    "4922": {
        "stop_name": "Northland Village - Northland Road",
        "stop_lat": -41.28352121,
        "stop_lon": 174.75694740000003,
        "location_type": 0
    },
    "3506": {
        "stop_name": "Helston Road at Beazley Avenue",
        "stop_lat": -41.21659283999999,
        "stop_lon": 174.8152756,
        "location_type": 0
    },
    "8163": {
        "stop_name": "Knights Road opposite Chilton St James School",
        "stop_lat": -41.21222667,
        "stop_lon": 174.91302106,
        "location_type": 0
    },
    "8850": {
        "stop_name": "Muritai Road at Makaro Gardens",
        "stop_lat": -41.29210409,
        "stop_lon": 174.8971435,
        "location_type": 0
    },
    "5020": {
        "stop_name": "Thorndon Quay at Davis Street (near 125)",
        "stop_lat": -41.27419839,
        "stop_lon": 174.7833218,
        "location_type": 0
    },
    "7534": {
        "stop_name": "Waipapa Road (near 96)",
        "stop_lat": -41.30343890999999,
        "stop_lon": 174.7970186,
        "location_type": 0
    },
    "6567": {
        "stop_name": "Roseneath Terrace at Thane Road",
        "stop_lat": -41.29307046,
        "stop_lon": 174.79898933,
        "location_type": 0
    },
    "1147": {
        "stop_name": "Paraparaumu Beach Shops - Stop B",
        "stop_lat": -40.89309815,
        "stop_lon": 174.9814885,
        "location_type": 0
    },
    "6557": {
        "stop_name": "Hataitai Road (near 120)",
        "stop_lat": -41.30195539999999,
        "stop_lon": 174.79691237,
        "location_type": 0
    },
    "6936": {
        "stop_name": "Hungerford Road at Houghton Bay Road",
        "stop_lat": -41.33880743999999,
        "stop_lon": 174.7873543,
        "location_type": 0
    },
    "6727": {
        "stop_name": "The Ridgeway (near 111)",
        "stop_lat": -41.31679402,
        "stop_lon": 174.76504073,
        "location_type": 0
    },
    "5368": {
        "stop_name": "Hazlewood Avenue at Fitzgerald Place",
        "stop_lat": -41.29716839,
        "stop_lon": 174.7241108,
        "location_type": 0
    },
    "1213": {
        "stop_name": "Guildford Drive at Regent Drive",
        "stop_lat": -40.89520317,
        "stop_lon": 175.0004256,
        "location_type": 0
    },
    "4457": {
        "stop_name": "Mysore Street (opposite 138)",
        "stop_lat": -41.25165277,
        "stop_lon": 174.78509540000002,
        "location_type": 0
    },
    "6926": {
        "stop_name": "Sutherland Road at Rodrigo Road",
        "stop_lat": -41.32256804,
        "stop_lon": 174.7890611,
        "location_type": 0
    },
    "3422": {
        "stop_name": "Mark Avenue near Paparangi Shops",
        "stop_lat": -41.21403051,
        "stop_lon": 174.81782900000002,
        "location_type": 0
    },
    "5506": {
        "stop_name": "Lambton Central - Stop B",
        "stop_lat": -41.28296166,
        "stop_lon": 174.7757989,
        "location_type": 0
    },
    "7212": {
        "stop_name": "Elizabeth Street at Kent Terrace",
        "stop_lat": -41.2958177,
        "stop_lon": 174.78319409999997,
        "location_type": 0
    },
    "1272": {
        "stop_name": "Kapiti Road at Hurley Road",
        "stop_lat": -40.89741363,
        "stop_lon": 174.9871967,
        "location_type": 0
    },
    "8328": {
        "stop_name": "The Glen - Horoeka Street at Glen Road (near 5)",
        "stop_lat": -41.17088703,
        "stop_lon": 174.9867388,
        "location_type": 0
    },
    "3518": {
        "stop_name": "Kenmore Street (near 72)",
        "stop_lat": -41.22567661,
        "stop_lon": 174.82734405,
        "location_type": 0
    },
    "5917": {
        "stop_name": "Kelburn Village - Upland Road (St Michael's)",
        "stop_lat": -41.28928589,
        "stop_lon": 174.7628342,
        "location_type": 0
    },
    "8514": {
        "stop_name": "Kirton Drive at Betty Watt Grove",
        "stop_lat": -41.11842123,
        "stop_lon": 175.03765751,
        "location_type": 0
    },
    "PETO1": {
        "stop_name": "Petone Station",
        "stop_lat": -41.22202574,
        "stop_lon": 174.86951757,
        "location_type": 0
    },
    "9002": {
        "stop_name": "Jackson Street at Te Puni Street (eastbound)",
        "stop_lat": -41.22291351,
        "stop_lon": 174.8705664,
        "location_type": 0
    },
    "3927": {
        "stop_name": "Hinau Street (near 3) (school stop)",
        "stop_lat": -41.16246879175546,
        "stop_lon": 174.83143218363998,
        "location_type": 0
    },
    "6559": {
        "stop_name": "Hataitai Road at Hataitai School",
        "stop_lat": -41.2978909,
        "stop_lon": 174.8004493,
        "location_type": 0
    },
    "6286": {
        "stop_name": "Seatoun Heights Road at Tio Tio Road",
        "stop_lat": -41.32317226,
        "stop_lon": 174.8270749,
        "location_type": 0
    },
    "7346": {
        "stop_name": "Airport Retail Park (opposite)",
        "stop_lat": -41.32650827,
        "stop_lon": 174.8020736,
        "location_type": 0
    },
    "3268": {
        "stop_name": "Johnsonville Road at Disraeli Street",
        "stop_lat": -41.22545745,
        "stop_lon": 174.8071696,
        "location_type": 0
    },
    "7910": {
        "stop_name": "Taranaki Street at Courtenay Place (near 72)",
        "stop_lat": -41.29337248,
        "stop_lon": 174.778231,
        "location_type": 0
    },
    "5420": {
        "stop_name": "Everest Street at Ganges Road",
        "stop_lat": -41.24828172,
        "stop_lon": 174.79335780000002,
        "location_type": 0
    },
    "3210": {
        "stop_name": "Halswater Drive at Dormar Place",
        "stop_lat": -41.20773958,
        "stop_lon": 174.81121409999997,
        "location_type": 0
    },
    "3070": {
        "stop_name": "Erris Street at Ironside Road",
        "stop_lat": -41.21882257,
        "stop_lon": 174.7994715,
        "location_type": 0
    },
    "8462": {
        "stop_name": "Silverstream Station - Fergusson Drive",
        "stop_lat": -41.14685583,
        "stop_lon": 175.01163219999998,
        "location_type": 0
    },
    "2842": {
        "stop_name": "Richard Street (near 2)",
        "stop_lat": -41.10259728,
        "stop_lon": 174.83660018,
        "location_type": 0
    },
    "5118": {
        "stop_name": "Grosvenor Terrace at Lower Watt Street",
        "stop_lat": -41.26594876,
        "stop_lon": 174.7798351,
        "location_type": 0
    },
    "9550": {
        "stop_name": "Shakespeare Avenue at Moonshine Road (near 84)",
        "stop_lat": -41.12454839,
        "stop_lon": 175.040611,
        "location_type": 0
    },
    "4946": {
        "stop_name": "Highbury Road at Disley Street",
        "stop_lat": -41.29246932,
        "stop_lon": 174.7549184,
        "location_type": 0
    },
    "1828": {
        "stop_name": "Waingawa - SH2 at Norfolk Road",
        "stop_lat": -40.9691008,
        "stop_lon": 175.6028907,
        "location_type": 0
    },
    "8289": {
        "stop_name": "Naenae Station (bus stop)",
        "stop_lat": -41.19850918,
        "stop_lon": 174.9463127,
        "location_type": 0
    },
    "1895": {
        "stop_name": "Oak Street at Colville Street",
        "stop_lat": -40.93929294,
        "stop_lon": 175.63830280000002,
        "location_type": 0
    },
    "4311": {
        "stop_name": "Bowen Street (near 38)",
        "stop_lat": -41.27812187,
        "stop_lon": 174.7742349,
        "location_type": 0
    },
    "6733": {
        "stop_name": "Kingston - Stop A",
        "stop_lat": -41.32347699999999,
        "stop_lon": 174.763686,
        "location_type": 0
    },
    "2816": {
        "stop_name": "Titahi Bay Road at Whanga Crescent Walkway",
        "stop_lat": -41.11961614,
        "stop_lon": 174.83893266,
        "location_type": 0
    },
    "6212": {
        "stop_name": "Elizabeth Street (near 7)",
        "stop_lat": -41.29581029999999,
        "stop_lon": 174.78367169999999,
        "location_type": 0
    },
    "1893": {
        "stop_name": "Masonic Village",
        "stop_lat": -40.94154225,
        "stop_lon": 175.6344726,
        "location_type": 0
    },
    "9150": {
        "stop_name": "Melling Station (bus stop)",
        "stop_lat": -41.20351255,
        "stop_lon": 174.9056732,
        "location_type": 0
    },
    "7754": {
        "stop_name": "Balfour Street (near 21)",
        "stop_lat": -41.31968,
        "stop_lon": 174.76683,
        "location_type": 0
    },
    "3208": {
        "stop_name": "Middleton Road opposite Wingfield Place",
        "stop_lat": -41.21115712,
        "stop_lon": 174.811547,
        "location_type": 0
    },
    "7791": {
        "stop_name": "Ohiro Road (near 264)",
        "stop_lat": -41.30919642,
        "stop_lon": 174.7625344,
        "location_type": 0
    },
    "8307": {
        "stop_name": "Holborn Drive (near 106)",
        "stop_lat": -41.16494944,
        "stop_lon": 174.97857230000002,
        "location_type": 0
    },
    "1944": {
        "stop_name": "Hadlow School (opposite)",
        "stop_lat": -40.95985382,
        "stop_lon": 175.6411417,
        "location_type": 0
    },
    "4425": {
        "stop_name": "Mandalay Terrace (near 24)",
        "stop_lat": -41.24750614,
        "stop_lon": 174.80264540000002,
        "location_type": 0
    },
    "7575": {
        "stop_name": "Mt Victoria Lookout",
        "stop_lat": -41.29644984,
        "stop_lon": 174.7946769,
        "location_type": 0
    },
    "2832": {
        "stop_name": "Dimock Street (near 71)",
        "stop_lat": -41.10398193999999,
        "stop_lon": 174.8447988,
        "location_type": 0
    },
    "1606": {
        "stop_name": "Field Way at Hughes Street",
        "stop_lat": -40.85547044,
        "stop_lon": 175.03185390000002,
        "location_type": 0
    },
    "1070": {
        "stop_name": "Ruapehu Street opposite Kaimanawa Street",
        "stop_lat": -40.92122182,
        "stop_lon": 175.0115416,
        "location_type": 0
    },
    "1534": {
        "stop_name": "Te Moana Road at Lavinia Grove",
        "stop_lat": -40.86640767,
        "stop_lon": 175.0296966,
        "location_type": 0
    },
    "2570": {
        "stop_name": "Postgate Drive opposite Browns Bay Park",
        "stop_lat": -41.10699992,
        "stop_lon": 174.880967,
        "location_type": 0
    },
    "6240": {
        "stop_name": "Darlington Road at Camperdown Road",
        "stop_lat": -41.30740322,
        "stop_lon": 174.8255573,
        "location_type": 0
    },
    "9225": {
        "stop_name": "High Street at Thornycroft Avenue (near 773)",
        "stop_lat": -41.20182106,
        "stop_lon": 174.9315034,
        "location_type": 0
    },
    "8054": {
        "stop_name": "Dowse Drive (near 82)",
        "stop_lat": -41.21249853,
        "stop_lon": 174.8795733,
        "location_type": 0
    },
    "1730": {
        "stop_name": "Otaki School - Mill Road",
        "stop_lat": -40.75426765999999,
        "stop_lon": 175.14390500000002,
        "location_type": 0
    },
    "8584": {
        "stop_name": "Fergusson Drive at Kashmir Avenue (near 1016)",
        "stop_lat": -41.12103551,
        "stop_lon": 175.0808809,
        "location_type": 0
    },
    "8410": {
        "stop_name": "Sunbrae Drive at Blue Mountains Road",
        "stop_lat": -41.15248572,
        "stop_lon": 175.01418769999998,
        "location_type": 0
    },
    "9118": {
        "stop_name": "High Street at Melling Road",
        "stop_lat": -41.20503226999999,
        "stop_lon": 174.9117998,
        "location_type": 0
    },
    "7242": {
        "stop_name": "Darlington Road (near 188)",
        "stop_lat": -41.30197289,
        "stop_lon": 174.82719740000002,
        "location_type": 0
    },
    "7327": {
        "stop_name": "Onepu Road at Cruickshank Street",
        "stop_lat": -41.32075882,
        "stop_lon": 174.7953439,
        "location_type": 0
    },
    "5114": {
        "stop_name": "Molesworth Street - Motorway",
        "stop_lat": -41.27266086,
        "stop_lon": 174.7779074,
        "location_type": 0
    },
    "1420": {
        "stop_name": "The Parade at Sand Track",
        "stop_lat": -40.98441091,
        "stop_lon": 174.95218658,
        "location_type": 0
    },
    "6791": {
        "stop_name": "Ohiro Road at Taft Street",
        "stop_lat": -41.30919458999999,
        "stop_lon": 174.7626538,
        "location_type": 0
    },
    "8278": {
        "stop_name": "Waddington Drive at Hay Street",
        "stop_lat": -41.20304194,
        "stop_lon": 174.9605199,
        "location_type": 0
    },
    "2510": {
        "stop_name": "Eskdale Road at Moray Place (near 61)",
        "stop_lat": -41.111303,
        "stop_lon": 174.868126,
        "location_type": 0
    },
    "AWAR": {
        "stop_name": "Awarua Street Station",
        "stop_lat": -41.24650333999999,
        "stop_lon": 174.7742774,
        "location_type": 0
    },
    "7241": {
        "stop_name": "Miramar - Darlington Road (near 124)",
        "stop_lat": -41.30571237,
        "stop_lon": 174.82612269,
        "location_type": 0
    },
    "4113": {
        "stop_name": "Murphy Street - Wellington Girls' College",
        "stop_lat": -41.27533423,
        "stop_lon": 174.77977090000002,
        "location_type": 0
    },
    "8779": {
        "stop_name": "Gracefield Road (near 101)",
        "stop_lat": -41.23656885,
        "stop_lon": 174.9165371,
        "location_type": 0
    },
    "7144": {
        "stop_name": "Murchison Street at Irwell Street",
        "stop_lat": -41.33655778,
        "stop_lon": 174.7638696,
        "location_type": 0
    },
    "3034": {
        "stop_name": "Truscott Avenue opposite Fairburn Grove",
        "stop_lat": -41.226401200000005,
        "stop_lon": 174.79590666,
        "location_type": 0
    },
    "1840": {
        "stop_name": "High Street at Judds Road",
        "stop_lat": -40.96199819,
        "stop_lon": 175.6261374,
        "location_type": 0
    },
    "7145": {
        "stop_name": "Murchison Street opposite Domanski Crescent",
        "stop_lat": -41.3356,
        "stop_lon": 174.76103999999998,
        "location_type": 0
    },
    "3299": {
        "stop_name": "Melksham Drive opposite Mauldeth Terrace",
        "stop_lat": -41.19895769,
        "stop_lon": 174.8076702,
        "location_type": 0
    },
    "8548": {
        "stop_name": "Upper Hutt College - Moonshine Road (near 34)",
        "stop_lat": -41.12713584,
        "stop_lon": 175.0420015,
        "location_type": 0
    },
    "2604": {
        "stop_name": "Paremata Road (near 132)",
        "stop_lat": -41.10346078,
        "stop_lon": 174.8770553,
        "location_type": 0
    },
    "9208": {
        "stop_name": "Fairway Drive at Avalon Park (GNS Science)",
        "stop_lat": -41.19539706,
        "stop_lon": 174.9332225,
        "location_type": 0
    },
    "2810": {
        "stop_name": "Takapuwahia Drive at Te Hiko Street (near 60)",
        "stop_lat": -41.12436651,
        "stop_lon": 174.83176473,
        "location_type": 0
    },
    "7038": {
        "stop_name": "Broadway at Cavendish Square",
        "stop_lat": -41.32450922999999,
        "stop_lon": 174.82603480000003,
        "location_type": 0
    },
    "7129": {
        "stop_name": "The Parade (near 36)",
        "stop_lat": -41.32902251,
        "stop_lon": 174.77394876,
        "location_type": 0
    },
    "6028": {
        "stop_name": "Rongotai Road at Troy Street",
        "stop_lat": -41.31886671,
        "stop_lon": 174.80114609999998,
        "location_type": 0
    },
    "9203": {
        "stop_name": "Oxford Terrace at Trinity Avenue (near 142)",
        "stop_lat": -41.20437982,
        "stop_lon": 174.9346795,
        "location_type": 0
    },
    "1939": {
        "stop_name": "Taratahi - SH2 at East Taratahi Road",
        "stop_lat": -40.98158186,
        "stop_lon": 175.58460280000003,
        "location_type": 0
    },
    "5918": {
        "stop_name": "Kelburn Normal School - Upland Rd (opposite)",
        "stop_lat": -41.28724432,
        "stop_lon": 174.7608686,
        "location_type": 0
    },
    "9558": {
        "stop_name": "Gibbons Street opposite Flora McCurdy Walk",
        "stop_lat": -41.11942366,
        "stop_lon": 175.0653459,
        "location_type": 0
    },
    "4388": {
        "stop_name": "Croydon Street opposite Versailles Street",
        "stop_lat": -41.29177888,
        "stop_lon": 174.7470178,
        "location_type": 0
    },
    "1905": {
        "stop_name": "State Highway 53 at No 1 Line",
        "stop_lat": -41.15025294,
        "stop_lon": 175.3681529,
        "location_type": 0
    },
    "9290": {
        "stop_name": "Naenae Road at Vogel Street (near 162)",
        "stop_lat": -41.20187777,
        "stop_lon": 174.94951319999998,
        "location_type": 0
    },
    "1290": {
        "stop_name": "Te Roto Drive at Kapiti Road (near 10)",
        "stop_lat": -40.90604780999999,
        "stop_lon": 174.998378,
        "location_type": 0
    },
    "9575": {
        "stop_name": "Fergusson Drive at Fraser Crescent",
        "stop_lat": -41.12514838,
        "stop_lon": 175.06254750000002,
        "location_type": 0
    },
    "7519": {
        "stop_name": "Oriental Parade at Carlton Gore Road",
        "stop_lat": -41.28854238,
        "stop_lon": 174.79923689999998,
        "location_type": 0
    },
    "3528": {
        "stop_name": "Somes Crescent at Dress Circle (near 10)",
        "stop_lat": -41.22734655,
        "stop_lon": 174.8301285,
        "location_type": 0
    },
    "2590": {
        "stop_name": "Tweed Road at Spey Place",
        "stop_lat": -41.11307432,
        "stop_lon": 174.86624938,
        "location_type": 0
    },
    "8021": {
        "stop_name": "Waione Street (near 308)",
        "stop_lat": -41.23217824999999,
        "stop_lon": 174.8933811,
        "location_type": 0
    },
    "7125": {
        "stop_name": "Adelaide Road (near 500)",
        "stop_lat": -41.32170219999999,
        "stop_lon": 174.77517780000002,
        "location_type": 0
    },
    "1105": {
        "stop_name": "Kapiti Health Centre",
        "stop_lat": -40.91031779761338,
        "stop_lon": 175.00740937570404,
        "location_type": 0
    },
    "2152": {
        "stop_name": "Warspite Avenue (near 178)",
        "stop_lat": -41.13241419,
        "stop_lon": 174.8801442,
        "location_type": 0
    },
    "NGAI1": {
        "stop_name": "Ngaio Station",
        "stop_lat": -41.25099113999999,
        "stop_lon": 174.77190448,
        "location_type": 0
    },
    "2010": {
        "stop_name": "Levin - Te Takere",
        "stop_lat": -40.623160999999996,
        "stop_lon": 175.28393300000002,
        "location_type": 0
    },
    "6724": {
        "stop_name": "Mills Road at Fortunatus Street",
        "stop_lat": -41.31211629999999,
        "stop_lon": 174.765958,
        "location_type": 0
    },
    "9047": {
        "stop_name": "Hutt Road (near 85)",
        "stop_lat": -41.22001190999999,
        "stop_lon": 174.8772834,
        "location_type": 0
    },
    "7017": {
        "stop_name": "Wellington Hospital - Stop B",
        "stop_lat": -41.30877386,
        "stop_lon": 174.77829119999998,
        "location_type": 0
    },
    "7731": {
        "stop_name": "Halifax Street (near 24)",
        "stop_lat": -41.32419009,
        "stop_lon": 174.76568659999998,
        "location_type": 0
    },
    "9229": {
        "stop_name": "Tennyson Avenue at High Street",
        "stop_lat": -41.19372561,
        "stop_lon": 174.94305187,
        "location_type": 0
    },
    "9064": {
        "stop_name": "Oakleigh Street at Dowse Drive",
        "stop_lat": -41.20184377,
        "stop_lon": 174.88117649999998,
        "location_type": 0
    },
    "4452": {
        "stop_name": "Colway Street (near 44)",
        "stop_lat": -41.24919411,
        "stop_lon": 174.77853931,
        "location_type": 0
    },
    "4360": {
        "stop_name": "Collier Avenue (near 20)",
        "stop_lat": -41.28782833999999,
        "stop_lon": 174.72828330000002,
        "location_type": 0
    },
    "9917": {
        "stop_name": "Wood Street at Faulke Avenue",
        "stop_lat": -41.27600584999999,
        "stop_lon": 174.9495689,
        "location_type": 0
    },
    "2730": {
        "stop_name": "James Cook Drive at Sailmaker Close",
        "stop_lat": -41.11272115,
        "stop_lon": 174.9016113,
        "location_type": 0
    },
    "5510": {
        "stop_name": "Willis Street at Willbank Court",
        "stop_lat": -41.28801096,
        "stop_lon": 174.7754582,
        "location_type": 0
    },
    "8213": {
        "stop_name": "Major Drive at Taieri Crescent (near 84)",
        "stop_lat": -41.18310120999999,
        "stop_lon": 174.93059540000002,
        "location_type": 0
    },
    "7572": {
        "stop_name": "Alexandra Road at SPCA",
        "stop_lat": -41.307091,
        "stop_lon": 174.787932,
        "location_type": 0
    },
    "5411": {
        "stop_name": "Cockayne Road at Bankot Crescent (near 156)",
        "stop_lat": -41.25213808,
        "stop_lon": 174.7828409,
        "location_type": 0
    },
    "8985": {
        "stop_name": "Wainuiomata Shopping Centre - Fitzherbert Road",
        "stop_lat": -41.26154601,
        "stop_lon": 174.94710940000002,
        "location_type": 0
    },
    "4387": {
        "stop_name": "Croydon Street (near 2)",
        "stop_lat": -41.2905346,
        "stop_lon": 174.74685641,
        "location_type": 0
    },
    "2878": {
        "stop_name": "Kotuku Street (near 16)",
        "stop_lat": -41.13258134,
        "stop_lon": 174.82915336,
        "location_type": 0
    },
    "3827": {
        "stop_name": "Nalanda Crescent (near 11)",
        "stop_lat": -41.23442162,
        "stop_lon": 174.79384346,
        "location_type": 0
    },
    "7158": {
        "stop_name": "Island Bay - Reef Street at Shorland Park",
        "stop_lat": -41.34311939,
        "stop_lon": 174.77062019999997,
        "location_type": 0
    },
    "5128": {
        "stop_name": "Izard Park - Wilton Road (near 41)",
        "stop_lat": -41.26449927,
        "stop_lon": 174.76432626,
        "location_type": 0
    },
    "1969": {
        "stop_name": "South Road at Millard Avenue",
        "stop_lat": -40.96297888,
        "stop_lon": 175.6423358,
        "location_type": 0
    },
    "1318": {
        "stop_name": "Ngaio Road at Matatua Road (near 4)",
        "stop_lat": -40.911742499999995,
        "stop_lon": 174.98157030000002,
        "location_type": 0
    },
    "6153": {
        "stop_name": "Owhiro Bay - Happy Valley Road (near 4)",
        "stop_lat": -41.34410014,
        "stop_lon": 174.75953140000001,
        "location_type": 0
    },
    "WAIK": {
        "stop_name": "Waikanae Station",
        "stop_lat": -40.87658706,
        "stop_lon": 175.06621317,
        "location_type": 0
    },
    "TAIT2": {
        "stop_name": "Taita Station",
        "stop_lat": -41.18031902,
        "stop_lon": 174.96066803,
        "location_type": 0
    },
    "8351": {
        "stop_name": "Park Hill Reserve",
        "stop_lat": -41.18782966,
        "stop_lon": 174.9171417,
        "location_type": 0
    },
    "7569": {
        "stop_name": "Alexandra Road at Lookout Road",
        "stop_lat": -41.29575997,
        "stop_lon": 174.79847980000002,
        "location_type": 0
    },
    "1230": {
        "stop_name": "Gray Avenue at Callender Terrace (near 33)",
        "stop_lat": -40.89226137,
        "stop_lon": 174.9934523,
        "location_type": 0
    },
    "MATA": {
        "stop_name": "Matarawa Station",
        "stop_lat": -41.04880879,
        "stop_lon": 175.44873607,
        "location_type": 0
    },
    "7553": {
        "stop_name": "St Patrick's College - Evans Bay Parade (opposite)",
        "stop_lat": -41.31426519,
        "stop_lon": 174.79528942,
        "location_type": 0
    },
    "WELL": {
        "stop_name": "Wellington Station",
        "stop_lat": -41.27896857,
        "stop_lon": 174.78056172,
        "location_type": 0
    },
    "3002": {
        "stop_name": "Johnsonville Road (Opposite Shopping Centre)",
        "stop_lat": -41.22377448999999,
        "stop_lon": 174.80738266,
        "location_type": 0
    },
    "7271": {
        "stop_name": "Awa Road at Totara Road",
        "stop_lat": -41.312110499999996,
        "stop_lon": 174.82551846,
        "location_type": 0
    },
    "9303": {
        "stop_name": "Holborn Drive at Stokes Valley Road (near 3)",
        "stop_lat": -41.16414716,
        "stop_lon": 174.98343804,
        "location_type": 0
    },
    "8111": {
        "stop_name": "Victoria Street at Alice Street (near 46)",
        "stop_lat": -41.21511184,
        "stop_lon": 174.89302016,
        "location_type": 0
    },
    "9054": {
        "stop_name": "Dowse Drive at Bushey Way",
        "stop_lat": -41.21213062,
        "stop_lon": 174.88003989999999,
        "location_type": 0
    },
    "9070": {
        "stop_name": "Pekanga Road at Taka Grove",
        "stop_lat": -41.20448631,
        "stop_lon": 174.89031630000002,
        "location_type": 0
    },
    "1374": {
        "stop_name": "Alexander Road (near 16)",
        "stop_lat": -40.91686807,
        "stop_lon": 174.98207969999999,
        "location_type": 0
    },
    "3254": {
        "stop_name": "Centennial Highway at Glover Street",
        "stop_lat": -41.24256196999999,
        "stop_lon": 174.81348830000002,
        "location_type": 0
    },
    "1306": {
        "stop_name": "Raumati Road at Matai Road (near 68)",
        "stop_lat": -40.92133895,
        "stop_lon": 174.9892197,
        "location_type": 0
    },
    "2558": {
        "stop_name": "Leeward Drive at Bosun Terrace (near 25)",
        "stop_lat": -41.10689482,
        "stop_lon": 174.88651561,
        "location_type": 0
    },
    "8147": {
        "stop_name": "Waiwhetu - Wainui Road (near 50)",
        "stop_lat": -41.22836834,
        "stop_lon": 174.9167748,
        "location_type": 0
    },
    "5391": {
        "stop_name": "Campbell Street (near 106)",
        "stop_lat": -41.29157574,
        "stop_lon": 174.7425937,
        "location_type": 0
    },
    "6160": {
        "stop_name": "The Esplanade (near 230)",
        "stop_lat": -41.34368704,
        "stop_lon": 174.7746992,
        "location_type": 0
    },
    "8070": {
        "stop_name": "Pekanga Road at Pokohiwi Road",
        "stop_lat": -41.20503628,
        "stop_lon": 174.8897358,
        "location_type": 0
    },
    "5028": {
        "stop_name": "Kaiwharawhara - Fore Street",
        "stop_lat": -41.25940794,
        "stop_lon": 174.79032,
        "location_type": 0
    },
    "6021": {
        "stop_name": "Constable Street at Owen Street (near 77)",
        "stop_lat": -41.31300862,
        "stop_lon": 174.7840211,
        "location_type": 0
    },
    "1898": {
        "stop_name": "Upper Plain Road - Western Plains Plaza",
        "stop_lat": -40.94257008999999,
        "stop_lon": 175.6328505,
        "location_type": 0
    },
    "3705": {
        "stop_name": "Woodridge Drive at Cedarwood Street",
        "stop_lat": -41.21766941,
        "stop_lon": 174.8326023,
        "location_type": 0
    },
    "WOOD": {
        "stop_name": "Woodside Station",
        "stop_lat": -41.06736154,
        "stop_lon": 175.40189781,
        "location_type": 0
    },
    "5317": {
        "stop_name": "Glenmore Street (near 177)",
        "stop_lat": -41.28783015,
        "stop_lon": 174.75789890000001,
        "location_type": 0
    },
    "0001": {
        "stop_name": "Fare Zone Boundary 12/13 - Ruamahanga River Bridge (SH53)",
        "stop_lat": -41.19730779,
        "stop_lon": 175.43980893,
        "location_type": 0
    },
    "6050": {
        "stop_name": "Breaker Bay Road at Reef Bay",
        "stop_lat": -41.33975864,
        "stop_lon": 174.8243096,
        "location_type": 0
    },
    "1194": {
        "stop_name": "Kapiti Road at Moana Road",
        "stop_lat": -40.91305706,
        "stop_lon": 175.004526,
        "location_type": 0
    },
    "9004": {
        "stop_name": "Jackson Street at Sydney Street",
        "stop_lat": -41.22445062,
        "stop_lon": 174.87574009999997,
        "location_type": 0
    },
    "3271": {
        "stop_name": "Chorley Grove at Chisbury Street",
        "stop_lat": -41.21277271999999,
        "stop_lon": 174.80684069,
        "location_type": 0
    },
    "8463": {
        "stop_name": "Fergusson Drive at Stream Grove",
        "stop_lat": -41.14571724,
        "stop_lon": 175.01493380000002,
        "location_type": 0
    },
    "2031": {
        "stop_name": "Aotea College - Stop A (school stop)",
        "stop_lat": -41.126356,
        "stop_lon": 174.85433600000002,
        "location_type": 0
    },
    "6748": {
        "stop_name": "Finnimore Terrace at Dransfield Street",
        "stop_lat": -41.31211639,
        "stop_lon": 174.77181159999998,
        "location_type": 0
    },
    "9587": {
        "stop_name": "Fergusson Drive at Cruickshank Road (near 1125)",
        "stop_lat": -41.11554102,
        "stop_lon": 175.090831,
        "location_type": 0
    },
    "2560": {
        "stop_name": "Leeward Drive (near 53)",
        "stop_lat": -41.10735803,
        "stop_lon": 174.883973,
        "location_type": 0
    },
    "6530": {
        "stop_name": "Hataitai School - Arawa Road",
        "stop_lat": -41.29868999,
        "stop_lon": 174.801188,
        "location_type": 0
    },
    "8336": {
        "stop_name": "Lord Street (near 26)",
        "stop_lat": -41.15982828,
        "stop_lon": 174.9855704,
        "location_type": 0
    },
    "4312": {
        "stop_name": "Tinakori Road at St Mary Street",
        "stop_lat": -41.27929047,
        "stop_lon": 174.7685352,
        "location_type": 0
    },
    "9060": {
        "stop_name": "Protea Street (near 9)",
        "stop_lat": -41.20465164,
        "stop_lon": 174.8746974,
        "location_type": 0
    },
    "9625": {
        "stop_name": "Plateau Road (near 165)",
        "stop_lat": -41.09640574,
        "stop_lon": 175.1420177,
        "location_type": 0
    },
    "1938": {
        "stop_name": "Clareville - SH2 at Chester Road (southbound)",
        "stop_lat": -41.00863779,
        "stop_lon": 175.5507031,
        "location_type": 0
    },
    "3474": {
        "stop_name": "Stewart Drive at Pritchard Street",
        "stop_lat": -41.2223829,
        "stop_lon": 174.8193726,
        "location_type": 0
    },
    "3926": {
        "stop_name": "SDA School - Raiha Street",
        "stop_lat": -41.14867352,
        "stop_lon": 174.8325858,
        "location_type": 0
    },
    "9215": {
        "stop_name": "Major Drive at Waipounamu Drive",
        "stop_lat": -41.17836175,
        "stop_lon": 174.9339135,
        "location_type": 0
    },
    "1774": {
        "stop_name": "State Highway 1 - Otaki (near 226)",
        "stop_lat": -40.76141338,
        "stop_lon": 175.1568105,
        "location_type": 0
    },
    "2568": {
        "stop_name": "Postgate School - Postgate Drive",
        "stop_lat": -41.11203005,
        "stop_lon": 174.88182519999998,
        "location_type": 0
    },
    "6721": {
        "stop_name": "Washington Avenue (near 83)",
        "stop_lat": -41.30706021,
        "stop_lon": 174.7668218,
        "location_type": 0
    },
    "1484": {
        "stop_name": "Matai Road at William Drive",
        "stop_lat": -40.93023753,
        "stop_lon": 174.98509219999997,
        "location_type": 0
    },
    "4368": {
        "stop_name": "Hazlewood Avenue (near 62)",
        "stop_lat": -41.29698831999999,
        "stop_lon": 174.724106,
        "location_type": 0
    },
    "5386": {
        "stop_name": "Duthie Street at Hurman Street (near 71)",
        "stop_lat": -41.28933885,
        "stop_lon": 174.7475498,
        "location_type": 0
    },
    "1122": {
        "stop_name": "Michael Road (near 47)",
        "stop_lat": -40.88341347,
        "stop_lon": 174.999833,
        "location_type": 0
    },
    "7222": {
        "stop_name": "Wellington Regional Aquatic Centre (opposite)",
        "stop_lat": -41.31503208,
        "stop_lon": 174.7929168,
        "location_type": 0
    },
    "8180": {
        "stop_name": "Riverside Drive at Freyburg Street (near 221)",
        "stop_lat": -41.22018463,
        "stop_lon": 174.9267949,
        "location_type": 0
    },
    "8602": {
        "stop_name": "Gemstone Drive at Beryl Grove",
        "stop_lat": -41.09297327,
        "stop_lon": 175.1034497,
        "location_type": 0
    },
    "9333": {
        "stop_name": "Manor Drive (near 13)",
        "stop_lat": -41.158364,
        "stop_lon": 174.98435215,
        "location_type": 0
    },
    "1302": {
        "stop_name": "Rimu Road - Rimu Village",
        "stop_lat": -40.92156156,
        "stop_lon": 174.99718280000002,
        "location_type": 0
    },
    "7232": {
        "stop_name": "Hobart Street at Chelsea Street",
        "stop_lat": -41.31937494999999,
        "stop_lon": 174.8146608,
        "location_type": 0
    },
    "7920": {
        "stop_name": "Riddiford Street at Gordon Street",
        "stop_lat": -41.31536587,
        "stop_lon": 174.78029826,
        "location_type": 0
    },
    "8552": {
        "stop_name": "Shakespeare Avenue (near 25)",
        "stop_lat": -41.12325552,
        "stop_lon": 175.04747959999997,
        "location_type": 0
    },
    "7514": {
        "stop_name": "Oriental Parade Opposite Freyberg Pool",
        "stop_lat": -41.29130039999999,
        "stop_lon": 174.78987819999998,
        "location_type": 0
    },
    "5002": {
        "stop_name": "Courtenay Place at St James Theatre",
        "stop_lat": -41.29316472,
        "stop_lon": 174.7800168,
        "location_type": 0
    },
    "7768": {
        "stop_name": "Karepa Street (opposite 171)",
        "stop_lat": -41.30603004,
        "stop_lon": 174.75755159999997,
        "location_type": 0
    },
    "8352": {
        "stop_name": "Belmont - Park Road",
        "stop_lat": -41.1884668920969,
        "stop_lon": 174.91292324006366,
        "location_type": 0
    },
    "6909": {
        "stop_name": "Ghuznee Street at Cuba Street (opposite)",
        "stop_lat": -41.29340013,
        "stop_lon": 174.77644030000002,
        "location_type": 0
    },
    "1500": {
        "stop_name": "Waikanae - Ngaio Road at Main Road",
        "stop_lat": -40.8759552,
        "stop_lon": 175.0652334,
        "location_type": 0
    },
    "1903": {
        "stop_name": "State Highway 53 at Wards Line (hail and ride)",
        "stop_lat": -41.17622823,
        "stop_lon": 175.4184408,
        "location_type": 0
    },
    "6729": {
        "stop_name": "The Ridgeway at Kingston Heights Road",
        "stop_lat": -41.32079443,
        "stop_lon": 174.7639222,
        "location_type": 0
    },
    "5515": {
        "stop_name": "Manners Street at Cuba Street - Stop A",
        "stop_lat": -41.29140832,
        "stop_lon": 174.77710280000002,
        "location_type": 0
    },
    "8052": {
        "stop_name": "Dowse Drive at Magnolia Grove (near 24)",
        "stop_lat": -41.21547343,
        "stop_lon": 174.87941999999998,
        "location_type": 0
    },
    "2771": {
        "stop_name": "Aotea Drive at Aspiring Terrace",
        "stop_lat": -41.12353594999999,
        "stop_lon": 174.8666686,
        "location_type": 0
    },
    "2779": {
        "stop_name": "Aotea Drive at Nelson Avenue",
        "stop_lat": -41.12789609,
        "stop_lon": 174.86440969999998,
        "location_type": 0
    },
    "7711": {
        "stop_name": "Willis Street - Abel Smith Street",
        "stop_lat": -41.294737899999994,
        "stop_lon": 174.77146059999998,
        "location_type": 0
    },
    "7163": {
        "stop_name": "Houghton Bay - The Esplanade",
        "stop_lat": -41.34191306999999,
        "stop_lon": 174.7845709,
        "location_type": 0
    },
    "8232": {
        "stop_name": "Taita Drive (near 176)",
        "stop_lat": -41.18890445,
        "stop_lon": 174.94435880000003,
        "location_type": 0
    },
    "8246": {
        "stop_name": "High Street at Guiness Street",
        "stop_lat": -41.19163889,
        "stop_lon": 174.9477785,
        "location_type": 0
    },
    "1837": {
        "stop_name": "High Street North (near 245)",
        "stop_lat": -41.01985641,
        "stop_lon": 175.5321084,
        "location_type": 0
    },
    "8417": {
        "stop_name": "Pempsey Street at Gloucester Street (near 2)",
        "stop_lat": -41.14738808,
        "stop_lon": 175.017249,
        "location_type": 0
    },
    "2789": {
        "stop_name": "Aotea Drive at Kahurangi Heights",
        "stop_lat": -41.12753403,
        "stop_lon": 174.8645186,
        "location_type": 0
    },
    "2524": {
        "stop_name": "Oak Avenue (near 14)",
        "stop_lat": -41.10416356999999,
        "stop_lon": 174.87814709999998,
        "location_type": 0
    },
    "9781": {
        "stop_name": "Gracefield Road (near 198)",
        "stop_lat": -41.24388694,
        "stop_lon": 174.9151996,
        "location_type": 0
    },
    "1584": {
        "stop_name": "Belvedere Avenue at Kapanui Road (near 101)",
        "stop_lat": -40.86986249,
        "stop_lon": 175.05678791,
        "location_type": 0
    },
    "9514": {
        "stop_name": "Kirton Drive at Riverstone Drive",
        "stop_lat": -41.11894782,
        "stop_lon": 175.03831254,
        "location_type": 0
    },
    "2836": {
        "stop_name": "Dimock Street (near 141)",
        "stop_lat": -41.09915275,
        "stop_lon": 174.84253321,
        "location_type": 0
    },
    "1933": {
        "stop_name": "High Street South at St Mary's School",
        "stop_lat": -41.03051995,
        "stop_lon": 175.5222881,
        "location_type": 0
    },
    "6070": {
        "stop_name": "Karaka Bay Road at Pretoria Road",
        "stop_lat": -41.30000820000001,
        "stop_lon": 174.8318007,
        "location_type": 0
    },
    "8568": {
        "stop_name": "Fergusson Drive at Brentwood Street (near 478)",
        "stop_lat": -41.13433624,
        "stop_lon": 175.03722119999998,
        "location_type": 0
    },
    "5417": {
        "stop_name": "Clutha Avenue (near 40)",
        "stop_lat": -41.24846454,
        "stop_lon": 174.7873955,
        "location_type": 0
    },
    "1558": {
        "stop_name": "Heperi Street (near 21)",
        "stop_lat": -40.86058089,
        "stop_lon": 175.0280949,
        "location_type": 0
    },
    "9110": {
        "stop_name": "Cuba Street near Montague Street",
        "stop_lat": -41.21654641,
        "stop_lon": 174.8909022,
        "location_type": 0
    },
    "PORI1": {
        "stop_name": "Porirua Station",
        "stop_lat": -41.13757469,
        "stop_lon": 174.8434782,
        "location_type": 0
    },
    "8464": {
        "stop_name": "Fergusson Drive opposite Kiwi Street",
        "stop_lat": -41.14375789,
        "stop_lon": 175.01880580000002,
        "location_type": 0
    },
    "7087": {
        "stop_name": "Ira Street at Miramar Avenue (near 95)",
        "stop_lat": -41.31801756,
        "stop_lon": 174.81971744,
        "location_type": 0
    },
    "9910": {
        "stop_name": "Wainuiomata Village - Main Road (near 143)",
        "stop_lat": -41.273222100000005,
        "stop_lon": 174.954381,
        "location_type": 0
    },
    "1186": {
        "stop_name": "Mazengarb Road at Makarini Street",
        "stop_lat": -40.90072742,
        "stop_lon": 175.01424430000003,
        "location_type": 0
    },
    "6291": {
        "stop_name": "Tannadyce Street (near 62)",
        "stop_lat": -41.32831328999999,
        "stop_lon": 174.8247071,
        "location_type": 0
    },
    "3412": {
        "stop_name": "Bracken Road at Trebann Street",
        "stop_lat": -41.22089144,
        "stop_lon": 174.8225522,
        "location_type": 0
    },
    "1304": {
        "stop_name": "Rimu Road (near 8)",
        "stop_lat": -40.92402933999999,
        "stop_lon": 174.99511950000002,
        "location_type": 0
    },
    "8174": {
        "stop_name": "Whites Line East at Hinemoa Street",
        "stop_lat": -41.22420916,
        "stop_lon": 174.917727,
        "location_type": 0
    },
    "7264": {
        "stop_name": "Nevay Road (near 164)",
        "stop_lat": -41.30023005,
        "stop_lon": 174.8291792,
        "location_type": 0
    },
    "7291": {
        "stop_name": "Tannadyce Street (near 63)",
        "stop_lat": -41.32822515,
        "stop_lon": 174.8245852,
        "location_type": 0
    },
    "6787": {
        "stop_name": "Raroa Road at Mt Pleasant Road",
        "stop_lat": -41.293849,
        "stop_lon": 174.75761799999998,
        "location_type": 0
    },
    "2331": {
        "stop_name": "Cannons Creek Shops - Bedford Street",
        "stop_lat": -41.14201241,
        "stop_lon": 174.86498318,
        "location_type": 0
    },
    "3016": {
        "stop_name": "Branscombe Street (near 5)",
        "stop_lat": -41.21590044,
        "stop_lon": 174.8020157,
        "location_type": 0
    },
    "7549": {
        "stop_name": "Hataitai Beach (opposite)",
        "stop_lat": -41.30602188999999,
        "stop_lon": 174.7988813,
        "location_type": 0
    },
    "5014": {
        "stop_name": "Lambton Quay North - Stop B",
        "stop_lat": -41.27987847,
        "stop_lon": 174.77630961,
        "location_type": 0
    },
    "5412": {
        "stop_name": "Punjab Street at Cockayne Road",
        "stop_lat": -41.25209739,
        "stop_lon": 174.7854656,
        "location_type": 0
    },
    "1470": {
        "stop_name": "Jeep Road at The Esplanade",
        "stop_lat": -40.94285124,
        "stop_lon": 174.9744224,
        "location_type": 0
    },
    "1260": {
        "stop_name": "Martin Road (near 59)",
        "stop_lat": -40.88843703,
        "stop_lon": 174.9958301,
        "location_type": 0
    },
    "4352": {
        "stop_name": "Karori West - Montgomery Avenue",
        "stop_lat": -41.2779207,
        "stop_lon": 174.7282606,
        "location_type": 0
    },
    "9200": {
        "stop_name": "Naenae Intermediate School - Walters Street (school stop)",
        "stop_lat": -41.19610999999999,
        "stop_lon": 174.941666,
        "location_type": 0
    },
    "1951": {
        "stop_name": "Renall Street at Essex Street",
        "stop_lat": -40.94742743,
        "stop_lon": 175.64100259999998,
        "location_type": 0
    },
    "NAEN": {
        "stop_name": "Naenae Station",
        "stop_lat": -41.19783157,
        "stop_lon": 174.94616226,
        "location_type": 0
    },
    "5326": {
        "stop_name": "Karori Road (near 223)",
        "stop_lat": -41.28415914,
        "stop_lon": 174.7395319,
        "location_type": 0
    },
    "8586": {
        "stop_name": "Fergusson Drive (opposite 1093)",
        "stop_lat": -41.1170375,
        "stop_lon": 175.08778180000002,
        "location_type": 0
    },
    "2838": {
        "stop_name": "Thornley Street at Dimock Street (near 28)",
        "stop_lat": -41.10001037,
        "stop_lon": 174.8396865,
        "location_type": 0
    },
    "1478": {
        "stop_name": "Poplar Avenue at Matai Road",
        "stop_lat": -40.9370551,
        "stop_lon": 174.98149540000003,
        "location_type": 0
    },
    "1114": {
        "stop_name": "Mazengarb Road at Ratanui Road",
        "stop_lat": -40.89470278,
        "stop_lon": 175.0084824,
        "location_type": 0
    },
    "2950": {
        "stop_name": "Main Road at Kapiti Crescent",
        "stop_lat": -41.10739697999999,
        "stop_lon": 174.8396545,
        "location_type": 0
    },
    "2862": {
        "stop_name": "Titahi Bay - Gloaming Hill at Onepoto Road",
        "stop_lat": -41.11351825,
        "stop_lon": 174.84758337,
        "location_type": 0
    },
    "8350": {
        "stop_name": "Park Road at Chilean Embassy",
        "stop_lat": -41.18876833,
        "stop_lon": 174.92026919999998,
        "location_type": 0
    },
    "7547": {
        "stop_name": "Evans Bay Parade opposite Greta Point Wharf",
        "stop_lat": -41.30352185999999,
        "stop_lon": 174.8032321,
        "location_type": 0
    },
    "9375": {
        "stop_name": "Stokes Valley Road at Kamahi Street",
        "stop_lat": -41.18687187995418,
        "stop_lon": 174.98293590558845,
        "location_type": 0
    },
    "3026": {
        "stop_name": "Cortina Avenue at Stonefield Place",
        "stop_lat": -41.21932859999999,
        "stop_lon": 174.7959066,
        "location_type": 0
    },
    "1754": {
        "stop_name": "Koromiko Street - Alexander Rest Home",
        "stop_lat": -40.73623498,
        "stop_lon": 175.1204706,
        "location_type": 0
    },
    "9998": {
        "stop_name": "Matiu/Somes Island Wharf",
        "stop_lat": -41.25555681,
        "stop_lon": 174.86718918,
        "location_type": 0
    },
    "9960": {
        "stop_name": "Frederick Wise Park - Parkway (opposite)",
        "stop_lat": -41.25597447,
        "stop_lon": 174.9463471,
        "location_type": 0
    },
    "5012": {
        "stop_name": "Lambton Central - Stop A",
        "stop_lat": -41.28260336,
        "stop_lon": 174.7756698,
        "location_type": 0
    },
    "9416": {
        "stop_name": "Silverstream Station - Kiln Street",
        "stop_lat": -41.147486,
        "stop_lon": 175.0116515,
        "location_type": 0
    },
    "2930": {
        "stop_name": "Titahi Bay - Pikarere Street (near 132)",
        "stop_lat": -41.1115278,
        "stop_lon": 174.8234536,
        "location_type": 0
    },
    "5508": {
        "stop_name": "Lambton Quay at Hunter Street",
        "stop_lat": -41.28493518,
        "stop_lon": 174.77574234,
        "location_type": 0
    },
    "5534": {
        "stop_name": "Everest Street at St Benedict's School",
        "stop_lat": -41.24911433,
        "stop_lon": 174.79194840000002,
        "location_type": 0
    },
    "5323": {
        "stop_name": "Karori Road (near 93)",
        "stop_lat": -41.28146038,
        "stop_lon": 174.7503247,
        "location_type": 0
    },
    "1728": {
        "stop_name": "Otaki Community Health Centre (opposite)",
        "stop_lat": -40.75642131,
        "stop_lon": 175.14918630000003,
        "location_type": 0
    },
    "7571": {
        "stop_name": "Alexandra Road (near 46)",
        "stop_lat": -41.29724525,
        "stop_lon": 174.7956542,
        "location_type": 0
    },
    "2850": {
        "stop_name": "Dimock Street (near 74)",
        "stop_lat": -41.10452215,
        "stop_lon": 174.8448139,
        "location_type": 0
    },
    "3982": {
        "stop_name": "Middleton Road (near 18)",
        "stop_lat": -41.21976284,
        "stop_lon": 174.80844430000002,
        "location_type": 0
    },
    "7770": {
        "stop_name": "Mitchell Street at Hoover Street (near 138)",
        "stop_lat": -41.30871649,
        "stop_lon": 174.7585794,
        "location_type": 0
    },
    "4317": {
        "stop_name": "Glenmore Street at Kelburn Viaduct",
        "stop_lat": -41.28783562,
        "stop_lon": 174.75754080000002,
        "location_type": 0
    },
    "4367": {
        "stop_name": "Hazlewood Avenue (near 16)",
        "stop_lat": -41.29410892,
        "stop_lon": 174.7239108,
        "location_type": 0
    },
    "9140": {
        "stop_name": "Waterloo Station - Stop C",
        "stop_lat": -41.21406237,
        "stop_lon": 174.92124750000002,
        "location_type": 0
    },
    "9736": {
        "stop_name": "Seaview Road (near 105)",
        "stop_lat": -41.2486154,
        "stop_lon": 174.91022180000002,
        "location_type": 0
    },
    "4431": {
        "stop_name": "Homebush Road (near 1)",
        "stop_lat": -41.25080374,
        "stop_lon": 174.8048844,
        "location_type": 0
    },
    "6099": {
        "stop_name": "Ahuriri Street at Kekerenga Street",
        "stop_lat": -41.33739452999999,
        "stop_lon": 174.8143245,
        "location_type": 0
    },
    "3822": {
        "stop_name": "Kanpur Road (near 59)",
        "stop_lat": -41.23758621,
        "stop_lon": 174.79187209999998,
        "location_type": 0
    },
    "1489": {
        "stop_name": "Menin Road opposite Miro Road",
        "stop_lat": -40.92801732,
        "stop_lon": 174.98205563,
        "location_type": 0
    },
    "5313": {
        "stop_name": "Glenmore Street at Botanic Garden",
        "stop_lat": -41.28057112,
        "stop_lon": 174.7672564,
        "location_type": 0
    },
    "7239": {
        "stop_name": "Darlington Road (near 64)",
        "stop_lat": -41.3094723,
        "stop_lon": 174.82481409,
        "location_type": 0
    },
    "7259": {
        "stop_name": "Kaikoura Street (near 102)",
        "stop_lat": -41.30262759,
        "stop_lon": 174.82042008,
        "location_type": 0
    },
    "8415": {
        "stop_name": "Field Street (near 7)",
        "stop_lat": -41.14973599999999,
        "stop_lon": 175.00981399999998,
        "location_type": 0
    },
    "7160": {
        "stop_name": "The Esplanade (opposite 222)",
        "stop_lat": -41.34360069,
        "stop_lon": 174.77445780000002,
        "location_type": 0
    },
    "1206": {
        "stop_name": "Te Roto Drive at Manchester Street",
        "stop_lat": -40.90393186,
        "stop_lon": 175.0009261,
        "location_type": 0
    },
    "6221": {
        "stop_name": "Hamilton Road at Wellington Road (near 115)",
        "stop_lat": -41.31169948,
        "stop_lon": 174.79368440000002,
        "location_type": 0
    },
    "WOBU1": {
        "stop_name": "Woburn Station",
        "stop_lat": -41.22092182,
        "stop_lon": 174.91133467,
        "location_type": 0
    },
    "1865": {
        "stop_name": "Gordon Street at Roberts Road",
        "stop_lat": -40.94480666,
        "stop_lon": 175.6842552,
        "location_type": 0
    },
    "2350": {
        "stop_name": "Champion Street at Cornwall Crescent (near 104)",
        "stop_lat": -41.13517473999999,
        "stop_lon": 174.8580624,
        "location_type": 0
    },
    "9147": {
        "stop_name": "Waiwhetu - Wainui Road (near 61)",
        "stop_lat": -41.22853846,
        "stop_lon": 174.9173763,
        "location_type": 0
    },
    "7265": {
        "stop_name": "Nevay Road opposite Glenville Road",
        "stop_lat": -41.3015972,
        "stop_lon": 174.8291261,
        "location_type": 0
    },
    "7750": {
        "stop_name": "McColl Street at Krull Street",
        "stop_lat": -41.31385311999999,
        "stop_lon": 174.76942959,
        "location_type": 0
    },
    "9908": {
        "stop_name": "Main Road at Hyde Street",
        "stop_lat": -41.26697091,
        "stop_lon": 174.9512101,
        "location_type": 0
    },
    "3476": {
        "stop_name": "Stewart Drive at Fitzpatrick Street",
        "stop_lat": -41.22107571,
        "stop_lon": 174.8165926,
        "location_type": 0
    },
    "5421": {
        "stop_name": "Everest Street at Izard Road",
        "stop_lat": -41.24744538,
        "stop_lon": 174.7950057,
        "location_type": 0
    },
    "1974": {
        "stop_name": "Kuripuni Street at Timms Place",
        "stop_lat": -40.96319427,
        "stop_lon": 175.6549176,
        "location_type": 0
    },
    "5342": {
        "stop_name": "Marshall Street at Hildreth Street",
        "stop_lat": -41.28460493,
        "stop_lon": 174.7270041,
        "location_type": 0
    },
    "8416": {
        "stop_name": "Silverstream Station - Gard Street",
        "stop_lat": -41.14747352,
        "stop_lon": 175.012366,
        "location_type": 0
    },
    "5921": {
        "stop_name": "Northland Tunnel (opposite Putnam Street)",
        "stop_lat": -41.28508277,
        "stop_lon": 174.7549592,
        "location_type": 0
    },
    "2785": {
        "stop_name": "Frances Brown Avenue at Queen Charlotte Drive",
        "stop_lat": -41.12685645,
        "stop_lon": 174.8562798,
        "location_type": 0
    },
    "2928": {
        "stop_name": "Pikarere Street (near 117)",
        "stop_lat": -41.11150518,
        "stop_lon": 174.8248822,
        "location_type": 0
    },
    "9325": {
        "stop_name": "Tawhai Street (near 59)",
        "stop_lat": -41.17581518,
        "stop_lon": 174.99344440000002,
        "location_type": 0
    },
    "9408": {
        "stop_name": "Pinehaven Road at Winchester Avenue",
        "stop_lat": -41.15772796,
        "stop_lon": 175.0131565,
        "location_type": 0
    },
    "2868": {
        "stop_name": "Whitireia Polytechnic - Te Hiko Street Medical Centre",
        "stop_lat": -41.12438609,
        "stop_lon": 174.8361981,
        "location_type": 0
    },
    "4428": {
        "stop_name": "Homebush Road (near 67)",
        "stop_lat": -41.24714809,
        "stop_lon": 174.8082447,
        "location_type": 0
    },
    "9348": {
        "stop_name": "Park Road at Natusch Road (near 13)",
        "stop_lat": -41.19299968,
        "stop_lon": 174.9203929,
        "location_type": 0
    },
    "7048": {
        "stop_name": "Breaker Bay Road at Flax Bay (near 136)",
        "stop_lat": -41.33552906,
        "stop_lon": 174.824072,
        "location_type": 0
    },
    "9361": {
        "stop_name": "Stokes Valley Entrance - Stop A",
        "stop_lat": -41.16163365,
        "stop_lon": 174.9822581,
        "location_type": 0
    },
    "2942": {
        "stop_name": "Tireti Road (near 54)",
        "stop_lat": -41.10976927,
        "stop_lon": 174.8320988,
        "location_type": 0
    },
    "2162": {
        "stop_name": "Warspite Avenue at Castor Crescent (near 50)",
        "stop_lat": -41.13925298,
        "stop_lon": 174.86949719999998,
        "location_type": 0
    },
    "3432": {
        "stop_name": "Guadeloupe Crescent (near 39)",
        "stop_lat": -41.209212,
        "stop_lon": 174.823047,
        "location_type": 0
    },
    "8071": {
        "stop_name": "Pekanga Road at Christina Grove (near 9)",
        "stop_lat": -41.20444322,
        "stop_lon": 174.8929389,
        "location_type": 0
    },
    "3018": {
        "stop_name": "Branscombe Street at Ironside Road",
        "stop_lat": -41.21746273,
        "stop_lon": 174.80003069999998,
        "location_type": 0
    },
    "1568": {
        "stop_name": "Te Moana Road at Walton Avenue",
        "stop_lat": -40.8748451,
        "stop_lon": 175.0415839,
        "location_type": 0
    },
    "WEST": {
        "stop_name": "Western Hutt Station",
        "stop_lat": -41.211870000000005,
        "stop_lon": 174.889995,
        "location_type": 0
    },
    "8842": {
        "stop_name": "Marine Drive near Mahina Bay",
        "stop_lat": -41.27021787999999,
        "stop_lon": 174.9079705,
        "location_type": 0
    },
    "9983": {
        "stop_name": "Nelson Crescent at Heath Street",
        "stop_lat": -41.25565392,
        "stop_lon": 174.9493215,
        "location_type": 0
    },
    "6121": {
        "stop_name": "Rintoul Street at Wakefield Hospital",
        "stop_lat": -41.31706436999999,
        "stop_lon": 174.7780387,
        "location_type": 0
    },
    "9065": {
        "stop_name": "Miromiro Road (near 303)",
        "stop_lat": -41.20025671,
        "stop_lon": 174.8845895,
        "location_type": 0
    },
    "8905": {
        "stop_name": "Wainuiomata Shopping Centre opposite Library",
        "stop_lat": -41.26238046,
        "stop_lon": 174.94570180000002,
        "location_type": 0
    },
    "8254": {
        "stop_name": "High Street at Petherick Street",
        "stop_lat": -41.17343606,
        "stop_lon": 174.9641665,
        "location_type": 0
    },
    "5325": {
        "stop_name": "Karori Normal School - Karori Road",
        "stop_lat": -41.28376246,
        "stop_lon": 174.7410723,
        "location_type": 0
    },
    "6333": {
        "stop_name": "Rua Street at Lyall Parade",
        "stop_lat": -41.33007133,
        "stop_lon": 174.79309019999997,
        "location_type": 0
    },
    "6064": {
        "stop_name": "Worser Bay - Marine Parade (near 177)",
        "stop_lat": -41.31475927999999,
        "stop_lon": 174.8274351,
        "location_type": 0
    },
    "9613": {
        "stop_name": "Norana Road opposite Timberlea Park",
        "stop_lat": -41.10598701,
        "stop_lon": 175.1060086,
        "location_type": 0
    },
    "9406": {
        "stop_name": "Jocelyn Crescent at Wyndham Road",
        "stop_lat": -41.16224583,
        "stop_lon": 175.01234130000003,
        "location_type": 0
    },
    "9402": {
        "stop_name": "Blue Mountains Road at Chichester Drive",
        "stop_lat": -41.15883365,
        "stop_lon": 175.0168849,
        "location_type": 0
    },
    "7283": {
        "stop_name": "Townsend Road (near 188)",
        "stop_lat": -41.32170488,
        "stop_lon": 174.82428724,
        "location_type": 0
    },
    "5945": {
        "stop_name": "Highbury Road opposite Moana Road",
        "stop_lat": -41.29198636,
        "stop_lon": 174.7570551,
        "location_type": 0
    },
    "4120": {
        "stop_name": "Lennel Road at Sefton Street",
        "stop_lat": -41.26409097,
        "stop_lon": 174.77874930000002,
        "location_type": 0
    },
    "7713": {
        "stop_name": "Brooklyn Road near Central Park Entrance",
        "stop_lat": -41.29838519,
        "stop_lon": 174.7685734,
        "location_type": 0
    },
    "4389": {
        "stop_name": "Croydon Street (near 64)",
        "stop_lat": -41.29395604,
        "stop_lon": 174.7460011,
        "location_type": 0
    },
    "3620": {
        "stop_name": "Helston Road at McMahon Way (near 112)",
        "stop_lat": -41.21742944999999,
        "stop_lon": 174.81362869999998,
        "location_type": 0
    },
    "1592": {
        "stop_name": "Sylvan Avenue at Parata Street",
        "stop_lat": -40.87140927,
        "stop_lon": 175.067584,
        "location_type": 0
    },
    "1202": {
        "stop_name": "Kapiti Road at Whitireia",
        "stop_lat": -40.90748415,
        "stop_lon": 174.9986587,
        "location_type": 0
    },
    "1556": {
        "stop_name": "Tutere Street at Hemara Street",
        "stop_lat": -40.86109355,
        "stop_lon": 175.0245512,
        "location_type": 0
    },
    "7024": {
        "stop_name": "Crawford Road at Kilbirnie Tennis Club",
        "stop_lat": -41.31605406,
        "stop_lon": 174.7909138,
        "location_type": 0
    },
    "1629": {
        "stop_name": "Winara Avenue opposite Mohua Street",
        "stop_lat": -40.868311,
        "stop_lon": 175.07721,
        "location_type": 0
    },
    "8122": {
        "stop_name": "High Street at Knox Presbyterian Church",
        "stop_lat": -41.20374091,
        "stop_lon": 174.9190373,
        "location_type": 0
    },
    "3516": {
        "stop_name": "Kenmore Street (near 106)",
        "stop_lat": -41.22346462,
        "stop_lon": 174.82500969999998,
        "location_type": 0
    },
    "9855": {
        "stop_name": "Muritai Road at Kowhai Street (near 383)",
        "stop_lat": -41.30227179,
        "stop_lon": 174.8923022,
        "location_type": 0
    },
    "6531": {
        "stop_name": "Arawa Road at Waipapa Road",
        "stop_lat": -41.29992156,
        "stop_lon": 174.8014241,
        "location_type": 0
    },
    "4947": {
        "stop_name": "Highbury Road Terminus",
        "stop_lat": -41.29393718,
        "stop_lon": 174.7531663,
        "location_type": 0
    },
    "5461": {
        "stop_name": "Cashmere Avenue (near 57)",
        "stop_lat": -41.24519080999999,
        "stop_lon": 174.79518269999997,
        "location_type": 0
    },
    "PLIM2": {
        "stop_name": "Plimmerton Station",
        "stop_lat": -41.08390554,
        "stop_lon": 174.86706619999998,
        "location_type": 0
    },
    "7721": {
        "stop_name": "Brooklyn School - Washington Avenue",
        "stop_lat": -41.30580105,
        "stop_lon": 174.7666237,
        "location_type": 0
    },
    "1368": {
        "stop_name": "Ngaio Road at Matatua Road",
        "stop_lat": -40.91164839,
        "stop_lon": 174.981805,
        "location_type": 0
    },
    "8984": {
        "stop_name": "Fitzherbert Road (near 5)",
        "stop_lat": -41.26001153,
        "stop_lon": 174.94730259999997,
        "location_type": 0
    },
    "9233": {
        "stop_name": "Taita Drive at Percy Cameron Street (near 225)",
        "stop_lat": -41.18730347,
        "stop_lon": 174.9484846,
        "location_type": 0
    },
    "6131": {
        "stop_name": "The Parade (near 103)",
        "stop_lat": -41.333008,
        "stop_lon": 174.773617,
        "location_type": 0
    },
    "6257": {
        "stop_name": "Kaikoura Street opposite Cobar Close",
        "stop_lat": -41.30600496999999,
        "stop_lon": 174.81715669999997,
        "location_type": 0
    },
    "2954": {
        "stop_name": "Titahi Bay School - Kura Street",
        "stop_lat": -41.11137749,
        "stop_lon": 174.8385747,
        "location_type": 0
    },
    "1222": {
        "stop_name": "Kapiti Road at Magrath Avenue",
        "stop_lat": -40.89671179,
        "stop_lon": 174.98610730000001,
        "location_type": 0
    },
    "7238": {
        "stop_name": "Darlington Road opposite Puriri Street",
        "stop_lat": -41.31184317999999,
        "stop_lon": 174.82388930000002,
        "location_type": 0
    },
    "3262": {
        "stop_name": "Ngauranga - Hutt Road (opposite motorway)",
        "stop_lat": -41.24752696,
        "stop_lon": 174.81279019999997,
        "location_type": 0
    },
    "1413": {
        "stop_name": "Tilley Road (near 101)",
        "stop_lat": -40.98099646,
        "stop_lon": 174.96090856,
        "location_type": 0
    },
    "1271": {
        "stop_name": "Guildford Drive at Santa Teresa Court",
        "stop_lat": -40.89307539,
        "stop_lon": 174.9984622,
        "location_type": 0
    },
    "2706": {
        "stop_name": "Omapere Street (near 51)",
        "stop_lat": -41.11699993,
        "stop_lon": 174.88083198,
        "location_type": 0
    },
    "9916": {
        "stop_name": "Wood Street (near 56)",
        "stop_lat": -41.27988504999999,
        "stop_lon": 174.9492068,
        "location_type": 0
    },
    "CROF": {
        "stop_name": "Crofton Downs Station",
        "stop_lat": -41.25504083,
        "stop_lon": 174.76649879,
        "location_type": 0
    },
    "7219": {
        "stop_name": "Moxham Avenue near Goa Street",
        "stop_lat": -41.30863,
        "stop_lon": 174.7924831,
        "location_type": 0
    },
    "4469": {
        "stop_name": "Burma Road at John Sims Drive",
        "stop_lat": -41.23622901,
        "stop_lon": 174.7980398,
        "location_type": 0
    },
    "8515": {
        "stop_name": "Kirton Drive at Garrett Place",
        "stop_lat": -41.11660938755027,
        "stop_lon": 175.03824865737633,
        "location_type": 0
    },
    "8422": {
        "stop_name": "Gallipoli Road (near 7)",
        "stop_lat": -41.14359017999999,
        "stop_lon": 175.0334565,
        "location_type": 0
    },
    "8997": {
        "stop_name": "Roberts Street at Grey Street",
        "stop_lat": -41.21878454,
        "stop_lon": 175.4504263,
        "location_type": 0
    },
    "6712": {
        "stop_name": "Brooklyn Road at Webb Street",
        "stop_lat": -41.29714527,
        "stop_lon": 174.77023361,
        "location_type": 0
    },
    "6019": {
        "stop_name": "Riddiford Street at Newtown Shops (near 157)",
        "stop_lat": -41.31283942999999,
        "stop_lon": 174.77962997,
        "location_type": 0
    },
    "1288": {
        "stop_name": "Te Roto Drive at Manchester Street (near 460)",
        "stop_lat": -40.90420195,
        "stop_lon": 175.0009343,
        "location_type": 0
    },
    "1921": {
        "stop_name": "Main Street (near 165)",
        "stop_lat": -41.08474038,
        "stop_lon": 175.45567480000003,
        "location_type": 0
    },
    "5138": {
        "stop_name": "Churchill Drive near Chartwell Drive",
        "stop_lat": -41.25745830999999,
        "stop_lon": 174.7652888,
        "location_type": 0
    },
    "9540": {
        "stop_name": "Tawai Street (near 14)",
        "stop_lat": -41.13595034,
        "stop_lon": 175.03762859999998,
        "location_type": 0
    },
    "9276": {
        "stop_name": "Waddington Drive at Collett Street (near 141)",
        "stop_lat": -41.20584004,
        "stop_lon": 174.95487859999997,
        "location_type": 0
    },
    "6934": {
        "stop_name": "View Road opposite Twomey Grove",
        "stop_lat": -41.33669768,
        "stop_lon": 174.7898063,
        "location_type": 0
    },
    "6044": {
        "stop_name": "Inglis Street at Mantell Street",
        "stop_lat": -41.3284619,
        "stop_lon": 174.8323587,
        "location_type": 0
    },
    "2808": {
        "stop_name": "Takapuwahia Drive at Rangituhi Crescent (near 22)",
        "stop_lat": -41.12611471,
        "stop_lon": 174.8294563,
        "location_type": 0
    },
    "7142": {
        "stop_name": "Frobisher Street (near 64)",
        "stop_lat": -41.33955278,
        "stop_lon": 174.7645811,
        "location_type": 0
    },
    "1540": {
        "stop_name": "Queens Road at Campion Road",
        "stop_lat": -40.8704175,
        "stop_lon": 175.01880599,
        "location_type": 0
    },
    "1176": {
        "stop_name": "Mazengarb Road at The Avenue",
        "stop_lat": -40.88564362,
        "stop_lon": 175.0010871,
        "location_type": 0
    },
    "8100": {
        "stop_name": "Oxford Terrace opposite Epuni Street",
        "stop_lat": -41.2097354,
        "stop_lon": 174.92684599999998,
        "location_type": 0
    },
    "9284": {
        "stop_name": "Rata Street School (near 76)",
        "stop_lat": -41.19984156,
        "stop_lon": 174.9580392,
        "location_type": 0
    },
    "5321": {
        "stop_name": "Chaytor Street opposite Curtis Street",
        "stop_lat": -41.28455607,
        "stop_lon": 174.75292172,
        "location_type": 0
    },
    "1623": {
        "stop_name": "Te Moana Road (near 463a)",
        "stop_lat": -40.879488,
        "stop_lon": 175.059629,
        "location_type": 0
    },
    "7093": {
        "stop_name": "Taiaroa Street (near 10)",
        "stop_lat": -41.33239377,
        "stop_lon": 174.8172926,
        "location_type": 0
    },
    "8633": {
        "stop_name": "Plateau Road (near 96)",
        "stop_lat": -41.09652066,
        "stop_lon": 175.13583,
        "location_type": 0
    },
    "2744": {
        "stop_name": "Samwell Drive (opposite 53)",
        "stop_lat": -41.11243309999999,
        "stop_lon": 174.906609,
        "location_type": 0
    },
    "9739": {
        "stop_name": "Marine Drive (near 139) (school stop)",
        "stop_lat": -41.254562,
        "stop_lon": 174.908692,
        "location_type": 0
    },
    "4430": {
        "stop_name": "Homebush Road (near 33)",
        "stop_lat": -41.24897686,
        "stop_lon": 174.80650490000002,
        "location_type": 0
    },
    "7036": {
        "stop_name": "Strathmore Park Shops - Broadway",
        "stop_lat": -41.32459439,
        "stop_lon": 174.8206604,
        "location_type": 0
    },
    "9323": {
        "stop_name": "Tawhai School - Glen Road",
        "stop_lat": -41.17347515,
        "stop_lon": 174.9881283,
        "location_type": 0
    },
    "5432": {
        "stop_name": "Onslow Road (opposite 47)",
        "stop_lat": -41.25082617999999,
        "stop_lon": 174.80345280000003,
        "location_type": 0
    },
    "8550": {
        "stop_name": "Shakespeare Avenue at Moonshine Road (near 83)",
        "stop_lat": -41.12463841,
        "stop_lon": 175.04061380000002,
        "location_type": 0
    },
    "7267": {
        "stop_name": "Nevay Road at Taipakupaku Road",
        "stop_lat": -41.306352200000006,
        "stop_lon": 174.8293504,
        "location_type": 0
    },
    "1126": {
        "stop_name": "Manly Street (near 316)",
        "stop_lat": -40.88076969,
        "stop_lon": 175.00165230000002,
        "location_type": 0
    },
    "1106": {
        "stop_name": "Arawhata Road (near 75)",
        "stop_lat": -40.90605258,
        "stop_lon": 175.0084697,
        "location_type": 0
    },
    "8066": {
        "stop_name": "Poto Road at Martin Grove",
        "stop_lat": -41.20057974,
        "stop_lon": 174.8868647,
        "location_type": 0
    },
    "3418": {
        "stop_name": "Beazley Avenue opposite Beverley Grove",
        "stop_lat": -41.21605794,
        "stop_lon": 174.8206287,
        "location_type": 0
    },
    "8365": {
        "stop_name": "Stokes Valley Road at St Phillips Anglican Church",
        "stop_lat": -41.1719492,
        "stop_lon": 174.9825988,
        "location_type": 0
    },
    "9277": {
        "stop_name": "Waddington Drive at Naenae Park (near 220)",
        "stop_lat": -41.20311089,
        "stop_lon": 174.956467,
        "location_type": 0
    },
    "3502": {
        "stop_name": "Helston Road (near 83)",
        "stop_lat": -41.21878747,
        "stop_lon": 174.8131891,
        "location_type": 0
    },
    "2800": {
        "stop_name": "Prosser Street (opposite 22)",
        "stop_lat": -41.13372029,
        "stop_lon": 174.83264599999998,
        "location_type": 0
    },
    "4330": {
        "stop_name": "Karori Road at Tringham Street",
        "stop_lat": -41.28674901,
        "stop_lon": 174.72881850000002,
        "location_type": 0
    },
    "6270": {
        "stop_name": "Awa Road at Seatoun Heights Road",
        "stop_lat": -41.31224788,
        "stop_lon": 174.8267676,
        "location_type": 0
    },
    "6563": {
        "stop_name": "Hawker Street opposite Doctors Common",
        "stop_lat": -41.29330156,
        "stop_lon": 174.78861919999997,
        "location_type": 0
    },
    "5025": {
        "stop_name": "Hutt Road at Sar Street",
        "stop_lat": -41.2671097,
        "stop_lon": 174.7815769,
        "location_type": 0
    },
    "7532": {
        "stop_name": "Waipapa Road opposite Peranga Terrace",
        "stop_lat": -41.30059937,
        "stop_lon": 174.8000461,
        "location_type": 0
    },
    "9959": {
        "stop_name": "Wainuiomata High School - Parkway (opposite)",
        "stop_lat": -41.25153206,
        "stop_lon": 174.93738330000002,
        "location_type": 0
    },
    "3612": {
        "stop_name": "Bracken Road at Carluke Street",
        "stop_lat": -41.21799647999999,
        "stop_lon": 174.82050626,
        "location_type": 0
    },
    "2702": {
        "stop_name": "Warspite Avenue (near 488)",
        "stop_lat": -41.12070439,
        "stop_lon": 174.8690897,
        "location_type": 0
    },
    "4345": {
        "stop_name": "Victory Avenue at Tobruk Street (near 14)",
        "stop_lat": -41.28142317999999,
        "stop_lon": 174.7289501,
        "location_type": 0
    },
    "7083": {
        "stop_name": "Miramar Shops - Stop A",
        "stop_lat": -41.315824,
        "stop_lon": 174.814952,
        "location_type": 0
    },
    "9978": {
        "stop_name": "Wise Street at Pencarrow Crescent (near 124)",
        "stop_lat": -41.24366426999999,
        "stop_lon": 174.94991969999998,
        "location_type": 0
    },
    "9156": {
        "stop_name": "Randwick Road at Moera Library",
        "stop_lat": -41.22593966,
        "stop_lon": 174.90572790000002,
        "location_type": 0
    },
    "3938": {
        "stop_name": "Bishop Viard College (school grounds)",
        "stop_lat": -41.14068090597646,
        "stop_lon": 174.83986775879367,
        "location_type": 0
    },
    "1254": {
        "stop_name": "Golf Road at Whyte Street",
        "stop_lat": -40.88538647,
        "stop_lon": 174.9899226,
        "location_type": 0
    },
    "9982": {
        "stop_name": "Nelson Crescent at Wise Street (near 26)",
        "stop_lat": -41.25498936999999,
        "stop_lon": 174.95133080000002,
        "location_type": 0
    },
    "7524": {
        "stop_name": "The Crescent (near 44)",
        "stop_lat": -41.29051378,
        "stop_lon": 174.7998882,
        "location_type": 0
    },
    "7045": {
        "stop_name": "Breaker Bay Road at Breaker Bay (near 67)",
        "stop_lat": -41.33210322,
        "stop_lon": 174.82944990000001,
        "location_type": 0
    },
    "1128": {
        "stop_name": "Kotuku Park - Manly Street (near 280)",
        "stop_lat": -40.87982259,
        "stop_lon": 174.9991315,
        "location_type": 0
    },
    "8963": {
        "stop_name": "Wellington Road at Dover Road",
        "stop_lat": -41.24950668999999,
        "stop_lon": 174.9453197,
        "location_type": 0
    },
    "7715": {
        "stop_name": "Brooklyn Road opposite Bidwill Street",
        "stop_lat": -41.30242391,
        "stop_lon": 174.7695186,
        "location_type": 0
    },
    "5134": {
        "stop_name": "Gloucester Street at Wilton Road",
        "stop_lat": -41.26865804,
        "stop_lon": 174.7570263,
        "location_type": 0
    },
    "7956": {
        "stop_name": "Melrose Road at Southgate Road",
        "stop_lat": -41.33773703,
        "stop_lon": 174.7808716,
        "location_type": 0
    },
    "2014": {
        "stop_name": "Porirua - Semple Street",
        "stop_lat": -41.12971804,
        "stop_lon": 174.83743276,
        "location_type": 0
    },
    "9604": {
        "stop_name": "Gemstone Drive opposite Jasper Grove",
        "stop_lat": -41.09300021,
        "stop_lon": 175.1069033,
        "location_type": 0
    },
    "9576": {
        "stop_name": "Wilson Street at Bradley Lane",
        "stop_lat": -41.124958,
        "stop_lon": 175.0681401,
        "location_type": 0
    },
    "8849": {
        "stop_name": "Muritai Road at Eastbourne Village",
        "stop_lat": -41.29073792,
        "stop_lon": 174.8980593,
        "location_type": 0
    },
    "9968": {
        "stop_name": "Wellington Road at Arakura Park (near 273)",
        "stop_lat": -41.23733295,
        "stop_lon": 174.94615180000002,
        "location_type": 0
    },
    "2337": {
        "stop_name": "Bedford Street at Durham Street (near 70)",
        "stop_lat": -41.14574565,
        "stop_lon": 174.8634855,
        "location_type": 0
    },
    "3240": {
        "stop_name": "Cambrian Street opposite Cunliffe Street",
        "stop_lat": -41.21134455,
        "stop_lon": 174.8053497,
        "location_type": 0
    },
    "1949": {
        "stop_name": "Chapel Street - UCOL",
        "stop_lat": -40.95334471,
        "stop_lon": 175.65395039999999,
        "location_type": 0
    },
    "1733": {
        "stop_name": "Kirk Street (near 25)",
        "stop_lat": -40.758728000000005,
        "stop_lon": 175.139611,
        "location_type": 0
    },
    "8002": {
        "stop_name": "Jackson Street at Te Puni Street (westbound)",
        "stop_lat": -41.222747,
        "stop_lon": 174.86972649999998,
        "location_type": 0
    },
    "5139": {
        "stop_name": "Cardinal McKeefry School - Wilton Road (opposite)",
        "stop_lat": -41.27524886,
        "stop_lon": 174.7560091,
        "location_type": 0
    },
    "8287": {
        "stop_name": "Hewer Crescent at Sladden Street (near 116)",
        "stop_lat": -41.19415881,
        "stop_lon": 174.95321919999998,
        "location_type": 0
    },
    "3214": {
        "stop_name": "Burbank Crescent at Longmont Terrace",
        "stop_lat": -41.20360926,
        "stop_lon": 174.8103846,
        "location_type": 0
    },
    "8704": {
        "stop_name": "Bell Road at Parkside Road",
        "stop_lat": -41.23452599,
        "stop_lon": 174.9148069,
        "location_type": 0
    },
    "2158": {
        "stop_name": "Warspite Avenue (near 96)",
        "stop_lat": -41.13657237,
        "stop_lon": 174.8737102,
        "location_type": 0
    },
    "6708": {
        "stop_name": "Victoria Street at Dixon Street",
        "stop_lat": -41.291219700000006,
        "stop_lon": 174.77541747,
        "location_type": 0
    },
    "9274": {
        "stop_name": "Waddington Drive at Keys Street (near 95)",
        "stop_lat": -41.20647721999999,
        "stop_lon": 174.9491727,
        "location_type": 0
    },
    "1550": {
        "stop_name": "Tutere Street at Eruini Street",
        "stop_lat": -40.86659577999999,
        "stop_lon": 175.01545839,
        "location_type": 0
    },
    "8902": {
        "stop_name": "Wainuiomata Road at Maire Street",
        "stop_lat": -41.25648376,
        "stop_lon": 174.93215849999999,
        "location_type": 0
    },
    "6023": {
        "stop_name": "Crawford Road at Wellington Road",
        "stop_lat": -41.31346353,
        "stop_lon": 174.78952880000003,
        "location_type": 0
    },
    "8556": {
        "stop_name": "McLeod Street at Robertson Street",
        "stop_lat": -41.11715986,
        "stop_lon": 175.0609871,
        "location_type": 0
    },
    "1759": {
        "stop_name": "Rangiuru Road (near 281)",
        "stop_lat": -40.75226399999999,
        "stop_lon": 175.13705,
        "location_type": 0
    },
    "7792": {
        "stop_name": "Ohiro Road (near 326)",
        "stop_lat": -41.31254233,
        "stop_lon": 174.7616688,
        "location_type": 0
    },
    "1626": {
        "stop_name": "Winara Avenue (near 8)",
        "stop_lat": -40.87849177999999,
        "stop_lon": 175.07086167,
        "location_type": 0
    },
    "8694": {
        "stop_name": "Akatarawa Road - Birchville Picnic Area (opposite)",
        "stop_lat": -41.09153624999999,
        "stop_lon": 175.0982844,
        "location_type": 0
    },
    "1807": {
        "stop_name": "State Highway 53 at Murphys Line (hail and ride)",
        "stop_lat": -41.12469893,
        "stop_lon": 175.3360253,
        "location_type": 0
    },
    "9299": {
        "stop_name": "Pomare Station - Eastern Hutt Road",
        "stop_lat": -41.16964727,
        "stop_lon": 174.9697749,
        "location_type": 0
    },
    "7542": {
        "stop_name": "Evans Bay Parade (near 94)",
        "stop_lat": -41.29145743,
        "stop_lon": 174.80289969999998,
        "location_type": 0
    },
    "9979": {
        "stop_name": "Wise Street at Russell Road",
        "stop_lat": -41.24797542,
        "stop_lon": 174.9506447,
        "location_type": 0
    },
    "3448": {
        "stop_name": "Mark Avenue (near 164)",
        "stop_lat": -41.206068,
        "stop_lon": 174.82377,
        "location_type": 0
    },
    "3510": {
        "stop_name": "Helston Road (near 201)",
        "stop_lat": -41.21763562,
        "stop_lon": 174.8176902,
        "location_type": 0
    },
    "9414": {
        "stop_name": "Field Street at Kurth Crescent (near 52)",
        "stop_lat": -41.15255441,
        "stop_lon": 175.0102573,
        "location_type": 0
    },
    "1273": {
        "stop_name": "Guildford Drive (opposite 106)",
        "stop_lat": -40.89510902,
        "stop_lon": 175.0006601,
        "location_type": 0
    },
    "9142": {
        "stop_name": "Guthrie Street at Brook Street",
        "stop_lat": -41.21890146,
        "stop_lon": 174.91733330000002,
        "location_type": 0
    },
    "7284": {
        "stop_name": "Seatoun Heights Road (near 21)",
        "stop_lat": -41.32181397,
        "stop_lon": 174.8256011,
        "location_type": 0
    },
    "4331": {
        "stop_name": "Karori Park Pavilion - Karori Road",
        "stop_lat": -41.28700485,
        "stop_lon": 174.7252091,
        "location_type": 0
    },
    "POMA": {
        "stop_name": "Pomare Station",
        "stop_lat": -41.16945495,
        "stop_lon": 174.96972088,
        "location_type": 0
    },
    "6917": {
        "stop_name": "Hutchison Terminus - Stop B",
        "stop_lat": -41.30716511,
        "stop_lon": 174.77616395,
        "location_type": 0
    },
    "3961": {
        "stop_name": "Main Road Tawa opposite St Francis Xavier School",
        "stop_lat": -41.17923552,
        "stop_lon": 174.8252116,
        "location_type": 0
    },
    "8527": {
        "stop_name": "Ararino Street at Ranfurly Street (near 61)",
        "stop_lat": -41.13560012,
        "stop_lon": 175.042145,
        "location_type": 0
    },
    "8978": {
        "stop_name": "Wise Street at Pencarrow Crescent (near 127)",
        "stop_lat": -41.24420645,
        "stop_lon": 174.9498165,
        "location_type": 0
    },
    "8280": {
        "stop_name": "Wesleyhaven Hospital (Rata Street)",
        "stop_lat": -41.20389594,
        "stop_lon": 174.968536,
        "location_type": 0
    },
    "8118": {
        "stop_name": "High Street at Downer Street",
        "stop_lat": -41.20530434,
        "stop_lon": 174.9116885,
        "location_type": 0
    },
    "9201": {
        "stop_name": "Oxford Terrace opposite Epuni Station",
        "stop_lat": -41.20798493,
        "stop_lon": 174.9291801,
        "location_type": 0
    },
    "9516": {
        "stop_name": "Kirton Drive (near 62)",
        "stop_lat": -41.11244743,
        "stop_lon": 175.03935527,
        "location_type": 0
    },
    "9328": {
        "stop_name": "The Glen - Horoeka Street at Glen Road (near 2)",
        "stop_lat": -41.17105783,
        "stop_lon": 174.98635883,
        "location_type": 0
    },
    "9405": {
        "stop_name": "Jocelyn Crescent at Pinehaven Road",
        "stop_lat": -41.16348326,
        "stop_lon": 175.01369019999998,
        "location_type": 0
    },
    "1726": {
        "stop_name": "Otaki College - Mill Road",
        "stop_lat": -40.75788989,
        "stop_lon": 175.1525505,
        "location_type": 0
    },